<?xml version="1.0" encoding="UTF-8" standalone="yes"?>
<gpx xmlns="http://www.topografix.com/GPX/1/1" version="1.1" creator="Waypointer http://waypointer.info">
    <metadata>
        <author>
            <name>Waypointer http://waypointer.info</name>
            <link href="http://waypointer.info">
                <text>Waypointer</text>
            </link>
        </author>
    </metadata>
    <wpt lat="51.651970" lon="-0.079390">
        <name>Enfield Town</name>
        <desc></desc>
    </wpt>
    <wpt lat="51.372910" lon="-0.414340">
        <name>Walton-on-Thames</name>
        <desc></desc>
    </wpt>
    <wpt lat="51.648790" lon="-0.172860">
        <name>New Barnet</name>
        <desc></desc>
    </wpt>
    <wpt lat="51.376920" lon="-0.389580">
        <name>Hersham</name>
        <desc></desc>
    </wpt>
    <wpt lat="51.380100" lon="-0.353270">
        <name>Esher</name>
        <desc></desc>
    </wpt>
    <wpt lat="51.493660" lon="-0.225000">
        <name>Hammersmith</name>
        <desc></desc>
    </wpt>
    <wpt lat="51.505800" lon="-0.226380">
        <name>Shepherd's Bush Market</name>
        <desc></desc>
    </wpt>
    <wpt lat="51.509890" lon="-0.224000">
        <name>Wood Lane</name>
        <desc></desc>
    </wpt>
    <wpt lat="51.633220" lon="0.010080">
        <name>Chingford</name>
        <desc></desc>
    </wpt>
    <wpt lat="51.582900" lon="-0.020100">
        <name>Walthamstow Central</name>
        <desc></desc>
    </wpt>
    <wpt lat="51.517270" lon="-0.210940">
        <name>Ladbroke Grove</name>
        <desc></desc>
    </wpt>
    <wpt lat="51.520890" lon="-0.200960">
        <name>Westbourne Park</name>
        <desc></desc>
    </wpt>
    <wpt lat="51.513510" lon="-0.320620">
        <name>West Ealing</name>
        <desc></desc>
    </wpt>
    <wpt lat="51.509750" lon="-0.471460">
        <name>West Drayton</name>
        <desc></desc>
    </wpt>
    <wpt lat="51.600930" lon="-0.192540">
        <name>Finchley Central</name>
        <desc></desc>
    </wpt>
    <wpt lat="51.648660" lon="-0.052530">
        <name>Southbury</name>
        <desc></desc>
    </wpt>
    <wpt lat="51.653150" lon="-0.090690">
        <name>Enfield Chase</name>
        <desc></desc>
    </wpt>
    <wpt lat="51.530300" lon="-0.293290">
        <name>Hanger Lane</name>
        <desc></desc>
    </wpt>
    <wpt lat="51.404080" lon="-0.255770">
        <name>New Malden</name>
        <desc></desc>
    </wpt>
    <wpt lat="51.440790" lon="-0.091340">
        <name>West Dulwich</name>
        <desc></desc>
    </wpt>
    <wpt lat="51.412030" lon="-0.044660">
        <name>Kent House</name>
        <desc></desc>
    </wpt>
    <wpt lat="51.394640" lon="0.106270">
        <name>St Mary Cray</name>
        <desc></desc>
    </wpt>
    <wpt lat="51.405880" lon="0.002160">
        <name>Shortlands</name>
        <desc></desc>
    </wpt>
    <wpt lat="51.552380" lon="-0.296490">
        <name>Wembley Central</name>
        <desc></desc>
    </wpt>
    <wpt lat="51.668610" lon="-0.176310">
        <name>Hadley Wood</name>
        <desc></desc>
    </wpt>
    <wpt lat="51.598390" lon="-0.121010">
        <name>Alexandra Palace</name>
        <desc></desc>
    </wpt>
    <wpt lat="51.357190" lon="-0.169350">
        <name>Carshalton Beeches</name>
        <desc></desc>
    </wpt>
    <wpt lat="51.392260" lon="-0.088580">
        <name>Selhurst</name>
        <desc></desc>
    </wpt>
    <wpt lat="51.398850" lon="-0.100270">
        <name>Thornton Heath</name>
        <desc></desc>
    </wpt>
    <wpt lat="51.411420" lon="-0.121660">
        <name>Norbury</name>
        <desc></desc>
    </wpt>
    <wpt lat="51.418600" lon="-0.135830">
        <name>Streatham Common</name>
        <desc></desc>
    </wpt>
    <wpt lat="51.446100" lon="-0.163370">
        <name>Wandsworth Common</name>
        <desc></desc>
    </wpt>
    <wpt lat="51.397150" lon="-0.074620">
        <name>Norwood Junction</name>
        <desc></desc>
    </wpt>
    <wpt lat="51.438920" lon="-0.053080">
        <name>Forest Hill</name>
        <desc></desc>
    </wpt>
    <wpt lat="51.450010" lon="-0.045360">
        <name>Honor Oak Park</name>
        <desc></desc>
    </wpt>
    <wpt lat="51.475040" lon="-0.040190">
        <name>New Cross Gate</name>
        <desc></desc>
    </wpt>
    <wpt lat="51.317950" lon="-0.389300">
        <name>Cobham &amp; Stoke D'Abernon</name>
        <desc></desc>
    </wpt>
    <wpt lat="51.532420" lon="-0.057250">
        <name>Cambridge Heath</name>
        <desc></desc>
    </wpt>
    <wpt lat="51.541080" lon="-0.057620">
        <name>London Fields</name>
        <desc></desc>
    </wpt>
    <wpt lat="51.549020" lon="-0.060780">
        <name>Hackney Downs</name>
        <desc></desc>
    </wpt>
    <wpt lat="51.580980" lon="-0.032810">
        <name>St James Street</name>
        <desc></desc>
    </wpt>
    <wpt lat="51.608920" lon="-0.000200">
        <name>Highams Park</name>
        <desc></desc>
    </wpt>
    <wpt lat="51.606640" lon="0.033920">
        <name>Woodford</name>
        <desc></desc>
    </wpt>
    <wpt lat="51.591930" lon="0.027460">
        <name>South Woodford</name>
        <desc></desc>
    </wpt>
    <wpt lat="51.476360" lon="-0.032690">
        <name>New Cross</name>
        <desc></desc>
    </wpt>
    <wpt lat="51.465560" lon="-0.013060">
        <name>Lewisham</name>
        <desc></desc>
    </wpt>
    <wpt lat="51.444660" lon="-0.024880">
        <name>Catford Bridge</name>
        <desc></desc>
    </wpt>
    <wpt lat="51.612640" lon="-0.248870">
        <name>Mill Hill Broadway</name>
        <desc></desc>
    </wpt>
    <wpt lat="51.424580" lon="-0.033310">
        <name>Lower Sydenham</name>
        <desc></desc>
    </wpt>
    <wpt lat="51.444400" lon="-0.026140">
        <name>Catford</name>
        <desc></desc>
    </wpt>
    <wpt lat="51.355740" lon="-0.214540">
        <name>Cheam</name>
        <desc></desc>
    </wpt>
    <wpt lat="51.492350" lon="-0.156530">
        <name>Sloane Square</name>
        <desc></desc>
    </wpt>
    <wpt lat="51.299120" lon="-0.333060">
        <name>Leatherhead</name>
        <desc></desc>
    </wpt>
    <wpt lat="51.424470" lon="-0.332570">
        <name>Teddington</name>
        <desc></desc>
    </wpt>
    <wpt lat="51.447760" lon="-0.410490">
        <name>Feltham</name>
        <desc></desc>
    </wpt>
    <wpt lat="51.414560" lon="-0.312370">
        <name>Hampton Wick</name>
        <desc></desc>
    </wpt>
    <wpt lat="51.672660" lon="-0.047230">
        <name>Turkey Street</name>
        <desc></desc>
    </wpt>
    <wpt lat="51.604480" lon="-0.070950">
        <name>White Hart Lane</name>
        <desc></desc>
    </wpt>
    <wpt lat="51.588330" lon="-0.059870">
        <name>Tottenham Hale</name>
        <desc></desc>
    </wpt>
    <wpt lat="51.593710" lon="-0.070080">
        <name>Bruce Grove</name>
        <desc></desc>
    </wpt>
    <wpt lat="51.558640" lon="-0.068440">
        <name>Rectory Road</name>
        <desc></desc>
    </wpt>
    <wpt lat="51.558560" lon="-0.212930">
        <name>Cricklewood</name>
        <desc></desc>
    </wpt>
    <wpt lat="51.288830" lon="-0.383870">
        <name>Bookham</name>
        <desc></desc>
    </wpt>
    <wpt lat="51.279410" lon="-0.435450">
        <name>Horsley</name>
        <desc></desc>
    </wpt>
    <wpt lat="51.511740" lon="-0.056140">
        <name>Shadwell</name>
        <desc></desc>
    </wpt>
    <wpt lat="51.512370" lon="-0.039690">
        <name>Limehouse</name>
        <desc></desc>
    </wpt>
    <wpt lat="51.509450" lon="-0.026740">
        <name>Westferry</name>
        <desc></desc>
    </wpt>
    <wpt lat="51.507660" lon="-0.016710">
        <name>Poplar</name>
        <desc></desc>
    </wpt>
    <wpt lat="51.507950" lon="-0.007230">
        <name>Blackwall</name>
        <desc></desc>
    </wpt>
    <wpt lat="51.509390" lon="-0.002260">
        <name>East India</name>
        <desc></desc>
    </wpt>
    <wpt lat="51.509090" lon="0.017580">
        <name>Royal Victoria</name>
        <desc></desc>
    </wpt>
    <wpt lat="51.509580" lon="0.025310">
        <name>Custom House for ExCel</name>
        <desc></desc>
    </wpt>
    <wpt lat="51.509360" lon="0.033640">
        <name>Prince Regent</name>
        <desc></desc>
    </wpt>
    <wpt lat="51.508410" lon="0.063980">
        <name>Cyprus</name>
        <desc></desc>
    </wpt>
    <wpt lat="51.508960" lon="0.071810">
        <name>Gallions Reach</name>
        <desc></desc>
    </wpt>
    <wpt lat="51.514380" lon="0.061030">
        <name>Beckton</name>
        <desc></desc>
    </wpt>
    <wpt lat="51.495840" lon="-0.014470">
        <name>Crossharbour</name>
        <desc></desc>
    </wpt>
    <wpt lat="51.442500" lon="-0.187500">
        <name>Earlsfield</name>
        <desc></desc>
    </wpt>
    <wpt lat="51.421380" lon="-0.206700">
        <name>Wimbledon</name>
        <desc></desc>
    </wpt>
    <wpt lat="51.408980" lon="-0.230540">
        <name>Raynes Park</name>
        <desc></desc>
    </wpt>
    <wpt lat="51.412300" lon="-0.284110">
        <name>Norbiton</name>
        <desc></desc>
    </wpt>
    <wpt lat="51.466820" lon="-0.242020">
        <name>Barnes</name>
        <desc></desc>
    </wpt>
    <wpt lat="51.557520" lon="-0.359280">
        <name>Northolt Park</name>
        <desc></desc>
    </wpt>
    <wpt lat="51.554240" lon="-0.285500">
        <name>Wembley Stadium</name>
        <desc></desc>
    </wpt>
    <wpt lat="51.585020" lon="-0.362770">
        <name>North Harrow</name>
        <desc></desc>
    </wpt>
    <wpt lat="51.592740" lon="-0.380780">
        <name>Pinner</name>
        <desc></desc>
    </wpt>
    <wpt lat="51.536610" lon="-0.323460">
        <name>Perivale</name>
        <desc></desc>
    </wpt>
    <wpt lat="51.264160" lon="-0.150100">
        <name>Merstham</name>
        <desc></desc>
    </wpt>
    <wpt lat="51.475300" lon="-0.201090">
        <name>Parsons Green</name>
        <desc></desc>
    </wpt>
    <wpt lat="51.592410" lon="-0.334910">
        <name>Harrow &amp; Wealdstone</name>
        <desc></desc>
    </wpt>
    <wpt lat="51.449700" lon="0.014520">
        <name>Lee</name>
        <desc></desc>
    </wpt>
    <wpt lat="51.433000" lon="-0.019340">
        <name>Bellingham</name>
        <desc></desc>
    </wpt>
    <wpt lat="51.424290" lon="-0.015640">
        <name>Beckenham Hill</name>
        <desc></desc>
    </wpt>
    <wpt lat="51.456020" lon="-0.019170">
        <name>Ladywell</name>
        <desc></desc>
    </wpt>
    <wpt lat="51.455230" lon="-0.036620">
        <name>Crofton Park</name>
        <desc></desc>
    </wpt>
    <wpt lat="51.465240" lon="-0.013770">
        <name>Lewisham</name>
        <desc></desc>
    </wpt>
    <wpt lat="51.526820" lon="-0.284080">
        <name>Park Royal</name>
        <desc></desc>
    </wpt>
    <wpt lat="51.517480" lon="-0.288740">
        <name>North Ealing</name>
        <desc></desc>
    </wpt>
    <wpt lat="51.675160" lon="-0.390230">
        <name>Watford North</name>
        <desc></desc>
    </wpt>
    <wpt lat="51.378220" lon="-0.153710">
        <name>Hackbridge</name>
        <desc></desc>
    </wpt>
    <wpt lat="51.425680" lon="-0.131960">
        <name>Streatham</name>
        <desc></desc>
    </wpt>
    <wpt lat="51.392940" lon="-0.157810">
        <name>Mitcham Junction</name>
        <desc></desc>
    </wpt>
    <wpt lat="51.439870" lon="-0.105050">
        <name>Tulse Hill</name>
        <desc></desc>
    </wpt>
    <wpt lat="51.466200" lon="-0.102270">
        <name>Loughborough Junction</name>
        <desc></desc>
    </wpt>
    <wpt lat="51.494060" lon="-0.098850">
        <name>Elephant &amp; Castle</name>
        <desc></desc>
    </wpt>
    <wpt lat="51.584490" lon="-0.278690">
        <name>Kingsbury</name>
        <desc></desc>
    </wpt>
    <wpt lat="51.471990" lon="-0.252680">
        <name>Barnes Bridge</name>
        <desc></desc>
    </wpt>
    <wpt lat="51.579600" lon="-0.353080">
        <name>West Harrow</name>
        <desc></desc>
    </wpt>
    <wpt lat="51.510230" lon="-0.288180">
        <name>Ealing Common</name>
        <desc></desc>
    </wpt>
    <wpt lat="51.491600" lon="-0.275210">
        <name>Gunnersbury</name>
        <desc></desc>
    </wpt>
    <wpt lat="51.652540" lon="-0.392110">
        <name>Watford High Street</name>
        <desc></desc>
    </wpt>
    <wpt lat="51.481740" lon="-0.010720">
        <name>Cutty Sark for Maritime Greenwich</name>
        <desc></desc>
    </wpt>
    <wpt lat="51.468510" lon="-0.016260">
        <name>Elverson Road</name>
        <desc></desc>
    </wpt>
    <wpt lat="51.464930" lon="-0.013060">
        <name>Lewisham</name>
        <desc></desc>
    </wpt>
    <wpt lat="51.580580" lon="-0.517670">
        <name>Denham Golf Club</name>
        <desc></desc>
    </wpt>
    <wpt lat="51.578730" lon="-0.497360">
        <name>Denham</name>
        <desc></desc>
    </wpt>
    <wpt lat="51.569740" lon="-0.437490">
        <name>West Ruislip</name>
        <desc></desc>
    </wpt>
    <wpt lat="51.560740" lon="-0.410590">
        <name>Ruislip Gardens</name>
        <desc></desc>
    </wpt>
    <wpt lat="51.557150" lon="-0.399170">
        <name>South Ruislip</name>
        <desc></desc>
    </wpt>
    <wpt lat="51.533290" lon="-0.336450">
        <name>South Greenford</name>
        <desc></desc>
    </wpt>
    <wpt lat="51.522830" lon="-0.331460">
        <name>Castle Bar Park</name>
        <desc></desc>
    </wpt>
    <wpt lat="51.516440" lon="-0.330150">
        <name>Drayton Green</name>
        <desc></desc>
    </wpt>
    <wpt lat="51.511790" lon="-0.338510">
        <name>Hanwell</name>
        <desc></desc>
    </wpt>
    <wpt lat="51.654180" lon="-0.518300">
        <name>Chorleywood</name>
        <desc></desc>
    </wpt>
    <wpt lat="51.640180" lon="-0.473580">
        <name>Rickmansworth</name>
        <desc></desc>
    </wpt>
    <wpt lat="51.629770" lon="-0.432070">
        <name>Moor Park</name>
        <desc></desc>
    </wpt>
    <wpt lat="51.647390" lon="-0.441290">
        <name>Croxley</name>
        <desc></desc>
    </wpt>
    <wpt lat="51.657370" lon="-0.417370">
        <name>Watford</name>
        <desc></desc>
    </wpt>
    <wpt lat="51.610810" lon="-0.423690">
        <name>Northwood</name>
        <desc></desc>
    </wpt>
    <wpt lat="51.600230" lon="-0.408600">
        <name>Northwood Hills</name>
        <desc></desc>
    </wpt>
    <wpt lat="51.570250" lon="-0.308400">
        <name>South Kenton</name>
        <desc></desc>
    </wpt>
    <wpt lat="51.562410" lon="-0.303870">
        <name>North Wembley</name>
        <desc></desc>
    </wpt>
    <wpt lat="51.449410" lon="-0.357340">
        <name>Whitton</name>
        <desc></desc>
    </wpt>
    <wpt lat="51.439170" lon="-0.339320">
        <name>Strawberry Hill</name>
        <desc></desc>
    </wpt>
    <wpt lat="51.450060" lon="-0.330230">
        <name>Twickenham</name>
        <desc></desc>
    </wpt>
    <wpt lat="51.433570" lon="-0.350060">
        <name>Fulwell</name>
        <desc></desc>
    </wpt>
    <wpt lat="51.495710" lon="-0.324690">
        <name>Boston Manor</name>
        <desc></desc>
    </wpt>
    <wpt lat="51.499360" lon="-0.314200">
        <name>Northfields</name>
        <desc></desc>
    </wpt>
    <wpt lat="51.501000" lon="-0.307110">
        <name>South Ealing</name>
        <desc></desc>
    </wpt>
    <wpt lat="51.558530" lon="-0.336190">
        <name>Sudbury Hill Harrow</name>
        <desc></desc>
    </wpt>
    <wpt lat="51.435600" lon="-0.159650">
        <name>Tooting Bec</name>
        <desc></desc>
    </wpt>
    <wpt lat="51.465120" lon="-0.129900">
        <name>Clapham North</name>
        <desc></desc>
    </wpt>
    <wpt lat="51.481830" lon="-0.112370">
        <name>Oval</name>
        <desc></desc>
    </wpt>
    <wpt lat="51.461730" lon="-0.138000">
        <name>Clapham Common</name>
        <desc></desc>
    </wpt>
    <wpt lat="51.488240" lon="-0.105610">
        <name>Kennington</name>
        <desc></desc>
    </wpt>
    <wpt lat="51.460890" lon="-0.188220">
        <name>Wandsworth Town</name>
        <desc></desc>
    </wpt>
    <wpt lat="51.416820" lon="0.044660">
        <name>Elmstead Woods</name>
        <desc></desc>
    </wpt>
    <wpt lat="51.356600" lon="0.108300">
        <name>Chelsfield</name>
        <desc></desc>
    </wpt>
    <wpt lat="51.345740" lon="0.130870">
        <name>Knockholt</name>
        <desc></desc>
    </wpt>
    <wpt lat="51.398010" lon="-0.049740">
        <name>Elmers End</name>
        <desc></desc>
    </wpt>
    <wpt lat="51.403520" lon="-0.056340">
        <name>Birkbeck</name>
        <desc></desc>
    </wpt>
    <wpt lat="51.414320" lon="-0.007610">
        <name>Ravensbourne</name>
        <desc></desc>
    </wpt>
    <wpt lat="51.430340" lon="0.022230">
        <name>Grove Park</name>
        <desc></desc>
    </wpt>
    <wpt lat="51.413790" lon="0.021440">
        <name>Sundridge Park</name>
        <desc></desc>
    </wpt>
    <wpt lat="51.546160" lon="-0.075020">
        <name>Dalston Junction</name>
        <desc></desc>
    </wpt>
    <wpt lat="51.475120" lon="-0.146170">
        <name>Queenstown Road</name>
        <desc></desc>
    </wpt>
    <wpt lat="51.434480" lon="-0.199610">
        <name>Wimbledon Park</name>
        <desc></desc>
    </wpt>
    <wpt lat="51.425380" lon="-0.188820">
        <name>Haydons Road</name>
        <desc></desc>
    </wpt>
    <wpt lat="51.419810" lon="-0.161200">
        <name>Tooting</name>
        <desc></desc>
    </wpt>
    <wpt lat="51.431620" lon="-0.103520">
        <name>West Norwood</name>
        <desc></desc>
    </wpt>
    <wpt lat="51.411030" lon="-0.025530">
        <name>Beckenham Junction</name>
        <desc></desc>
    </wpt>
    <wpt lat="51.390150" lon="-0.026300">
        <name>Eden Park</name>
        <desc></desc>
    </wpt>
    <wpt lat="51.463040" lon="-0.301740">
        <name>Richmond</name>
        <desc></desc>
    </wpt>
    <wpt lat="51.474910" lon="-0.336790">
        <name>Isleworth</name>
        <desc></desc>
    </wpt>
    <wpt lat="51.499300" lon="-0.270510">
        <name>South Acton</name>
        <desc></desc>
    </wpt>
    <wpt lat="51.466890" lon="-0.052360">
        <name>Nunhead</name>
        <desc></desc>
    </wpt>
    <wpt lat="51.454180" lon="-0.088330">
        <name>North Dulwich</name>
        <desc></desc>
    </wpt>
    <wpt lat="51.663190" lon="-0.094520">
        <name>Gordon Hill</name>
        <desc></desc>
    </wpt>
    <wpt lat="51.643320" lon="-0.096920">
        <name>Grange Park</name>
        <desc></desc>
    </wpt>
    <wpt lat="51.296610" lon="0.171300">
        <name>Dunton Green</name>
        <desc></desc>
    </wpt>
    <wpt lat="51.313090" lon="0.197030">
        <name>Otford</name>
        <desc></desc>
    </wpt>
    <wpt lat="51.289830" lon="0.193870">
        <name>Bat &amp; Ball</name>
        <desc></desc>
    </wpt>
    <wpt lat="51.529800" lon="-0.185770">
        <name>Maida Vale</name>
        <desc></desc>
    </wpt>
    <wpt lat="51.523300" lon="-0.184010">
        <name>Warwick Avenue</name>
        <desc></desc>
    </wpt>
    <wpt lat="51.540820" lon="-0.210000">
        <name>Brondesbury Park</name>
        <desc></desc>
    </wpt>
    <wpt lat="51.534600" lon="-0.219710">
        <name>Kensal Rise</name>
        <desc></desc>
    </wpt>
    <wpt lat="51.309320" lon="-0.169320">
        <name>Chipstead</name>
        <desc></desc>
    </wpt>
    <wpt lat="51.581540" lon="-0.023740">
        <name>Walthamstow Queen's Road</name>
        <desc></desc>
    </wpt>
    <wpt lat="51.480900" lon="-0.194370">
        <name>Fulham Broadway</name>
        <desc></desc>
    </wpt>
    <wpt lat="51.549250" lon="0.044240">
        <name>Woodgrange Park</name>
        <desc></desc>
    </wpt>
    <wpt lat="51.499410" lon="-0.134340">
        <name>St. James's Park</name>
        <desc>Saint James's Park</desc>
    </wpt>
    <wpt lat="51.518200" lon="-0.280610">
        <name>West Acton</name>
        <desc></desc>
    </wpt>
    <wpt lat="51.507920" lon="-0.541910">
        <name>Langley</name>
        <desc></desc>
    </wpt>
    <wpt lat="51.508590" lon="-0.506820">
        <name>Iver</name>
        <desc></desc>
    </wpt>
    <wpt lat="51.502960" lon="-0.420060">
        <name>Hayes &amp; Harlington</name>
        <desc></desc>
    </wpt>
    <wpt lat="51.501150" lon="-0.125210">
        <name>Westminster</name>
        <desc>Westminster</desc>
    </wpt>
    <wpt lat="51.670890" lon="-0.028550">
        <name>Enfield Lock</name>
        <desc></desc>
    </wpt>
    <wpt lat="51.655570" lon="-0.030820">
        <name>Brimsdown</name>
        <desc></desc>
    </wpt>
    <wpt lat="51.575480" lon="0.089950">
        <name>Newbury Park</name>
        <desc></desc>
    </wpt>
    <wpt lat="51.434020" lon="0.103200">
        <name>Sidcup</name>
        <desc></desc>
    </wpt>
    <wpt lat="51.438000" lon="0.070950">
        <name>New Eltham</name>
        <desc></desc>
    </wpt>
    <wpt lat="51.440240" lon="0.049950">
        <name>Mottingham</name>
        <desc></desc>
    </wpt>
    <wpt lat="51.451450" lon="-0.000480">
        <name>Hither Green Stations</name>
        <desc></desc>
    </wpt>
    <wpt lat="51.469060" lon="-0.022240">
        <name>St Johns</name>
        <desc></desc>
    </wpt>
    <wpt lat="51.389060" lon="-0.339150">
        <name>Thames Ditton</name>
        <desc></desc>
    </wpt>
    <wpt lat="51.376890" lon="-0.279460">
        <name>Tolworth</name>
        <desc></desc>
    </wpt>
    <wpt lat="51.384760" lon="-0.261170">
        <name>Malden Manor</name>
        <desc></desc>
    </wpt>
    <wpt lat="51.381420" lon="-0.244970">
        <name>Worcester Park</name>
        <desc></desc>
    </wpt>
    <wpt lat="51.318010" lon="-0.307170">
        <name>Ashtead</name>
        <desc></desc>
    </wpt>
    <wpt lat="51.368590" lon="-0.166400">
        <name>Carshalton</name>
        <desc></desc>
    </wpt>
    <wpt lat="51.345310" lon="-0.241300">
        <name>Ewell East</name>
        <desc></desc>
    </wpt>
    <wpt lat="51.334490" lon="-0.268460">
        <name>Epsom</name>
        <desc></desc>
    </wpt>
    <wpt lat="51.253990" lon="-0.328710">
        <name>Box Hill &amp; Westhumble</name>
        <desc></desc>
    </wpt>
    <wpt lat="51.464790" lon="0.101750">
        <name>Welling</name>
        <desc></desc>
    </wpt>
    <wpt lat="51.459280" lon="0.079810">
        <name>Falconwood</name>
        <desc></desc>
    </wpt>
    <wpt lat="51.322030" lon="-0.134790">
        <name>Coulsdon Town</name>
        <desc></desc>
    </wpt>
    <wpt lat="51.318950" lon="-0.154080">
        <name>Woodmansterne</name>
        <desc></desc>
    </wpt>
    <wpt lat="51.294730" lon="-0.211010">
        <name>Kingswood</name>
        <desc></desc>
    </wpt>
    <wpt lat="51.331130" lon="-0.123410">
        <name>Reedham</name>
        <desc></desc>
    </wpt>
    <wpt lat="51.435370" lon="0.125960">
        <name>Albany Park</name>
        <desc></desc>
    </wpt>
    <wpt lat="51.516710" lon="0.190610">
        <name>Rainham</name>
        <desc></desc>
    </wpt>
    <wpt lat="51.582670" lon="-0.073630">
        <name>Seven Sisters</name>
        <desc></desc>
    </wpt>
    <wpt lat="51.448180" lon="0.178380">
        <name>Crayford</name>
        <desc></desc>
    </wpt>
    <wpt lat="51.510440" lon="-0.187210">
        <name>Queensway</name>
        <desc></desc>
    </wpt>
    <wpt lat="51.511820" lon="-0.175120">
        <name>Lancaster Gate</name>
        <desc></desc>
    </wpt>
    <wpt lat="51.455600" lon="0.052310">
        <name>Eltham</name>
        <desc></desc>
    </wpt>
    <wpt lat="51.482640" lon="0.003500">
        <name>Maze Hill</name>
        <desc></desc>
    </wpt>
    <wpt lat="51.465010" lon="0.159470">
        <name>Barnehurst</name>
        <desc></desc>
    </wpt>
    <wpt lat="51.463540" lon="0.133900">
        <name>Bexleyheath</name>
        <desc></desc>
    </wpt>
    <wpt lat="51.359450" lon="-0.190970">
        <name>Sutton</name>
        <desc></desc>
    </wpt>
    <wpt lat="51.491100" lon="0.055050">
        <name>Woolwich Dockyard</name>
        <desc></desc>
    </wpt>
    <wpt lat="51.489900" lon="0.069310">
        <name>Woolwich Arsenal</name>
        <desc></desc>
    </wpt>
    <wpt lat="51.489790" lon="0.084030">
        <name>Plumstead</name>
        <desc></desc>
    </wpt>
    <wpt lat="51.478960" lon="-0.026650">
        <name>Deptford</name>
        <desc></desc>
    </wpt>
    <wpt lat="51.462690" lon="-0.114730">
        <name>Brixton</name>
        <desc></desc>
    </wpt>
    <wpt lat="51.419290" lon="-0.054060">
        <name>Penge East</name>
        <desc></desc>
    </wpt>
    <wpt lat="51.400060" lon="0.017520">
        <name>Bromley South</name>
        <desc></desc>
    </wpt>
    <wpt lat="51.400080" lon="0.044930">
        <name>Bickley</name>
        <desc></desc>
    </wpt>
    <wpt lat="51.276680" lon="0.181770">
        <name>Sevenoaks</name>
        <desc></desc>
    </wpt>
    <wpt lat="51.362800" lon="0.204280">
        <name>Eynsford</name>
        <desc></desc>
    </wpt>
    <wpt lat="51.332130" lon="0.188740">
        <name>Shoreham</name>
        <desc></desc>
    </wpt>
    <wpt lat="51.393260" lon="0.168510">
        <name>Swanley</name>
        <desc></desc>
    </wpt>
    <wpt lat="51.594170" lon="-0.286190">
        <name>Queensbury</name>
        <desc></desc>
    </wpt>
    <wpt lat="51.510720" lon="-0.013070">
        <name>All Saints</name>
        <desc></desc>
    </wpt>
    <wpt lat="51.522470" lon="-0.017500">
        <name>Devons Road</name>
        <desc></desc>
    </wpt>
    <wpt lat="51.395600" lon="-0.199130">
        <name>Morden South</name>
        <desc></desc>
    </wpt>
    <wpt lat="51.389540" lon="-0.198790">
        <name>St. Helier</name>
        <desc></desc>
    </wpt>
    <wpt lat="51.375370" lon="-0.196030">
        <name>Sutton Common</name>
        <desc></desc>
    </wpt>
    <wpt lat="51.366040" lon="-0.204710">
        <name>West Sutton</name>
        <desc></desc>
    </wpt>
    <wpt lat="51.409830" lon="-0.214500">
        <name>Wimbledon Chase</name>
        <desc></desc>
    </wpt>
    <wpt lat="51.506710" lon="-0.020510">
        <name>West India Quay</name>
        <desc></desc>
    </wpt>
    <wpt lat="51.565060" lon="-0.072710">
        <name>Stoke Newington</name>
        <desc></desc>
    </wpt>
    <wpt lat="51.546110" lon="0.005870">
        <name>Maryland</name>
        <desc></desc>
    </wpt>
    <wpt lat="51.282110" lon="-0.078240">
        <name>Caterham</name>
        <desc></desc>
    </wpt>
    <wpt lat="51.289710" lon="-0.051620">
        <name>Woldingham</name>
        <desc></desc>
    </wpt>
    <wpt lat="51.303750" lon="-0.077250">
        <name>Whyteleafe South</name>
        <desc></desc>
    </wpt>
    <wpt lat="51.308550" lon="-0.077810">
        <name>Upper Warlingham</name>
        <desc></desc>
    </wpt>
    <wpt lat="51.309930" lon="-0.081030">
        <name>Whyteleafe</name>
        <desc></desc>
    </wpt>
    <wpt lat="51.324790" lon="-0.100870">
        <name>Kenley</name>
        <desc></desc>
    </wpt>
    <wpt lat="51.362900" lon="-0.093300">
        <name>South Croydon</name>
        <desc></desc>
    </wpt>
    <wpt lat="51.348400" lon="-0.093480">
        <name>Sanderstead</name>
        <desc></desc>
    </wpt>
    <wpt lat="51.574440" lon="-0.076680">
        <name>Stamford Hill</name>
        <desc></desc>
    </wpt>
    <wpt lat="51.461560" lon="-0.080390">
        <name>East Dulwich</name>
        <desc></desc>
    </wpt>
    <wpt lat="51.586720" lon="-0.041280">
        <name>Blackhorse Road</name>
        <desc></desc>
    </wpt>
    <wpt lat="51.486830" lon="0.031440">
        <name>Charlton</name>
        <desc></desc>
    </wpt>
    <wpt lat="51.484240" lon="0.018880">
        <name>Westcombe Park</name>
        <desc></desc>
    </wpt>
    <wpt lat="51.575050" lon="0.183090">
        <name>Romford</name>
        <desc></desc>
    </wpt>
    <wpt lat="51.554260" lon="-0.315840">
        <name>Sudbury &amp; Harrow Road</name>
        <desc></desc>
    </wpt>
    <wpt lat="51.399060" lon="-0.280930">
        <name>Berrylands</name>
        <desc></desc>
    </wpt>
    <wpt lat="51.523640" lon="-0.146610">
        <name>Regent's Park</name>
        <desc></desc>
    </wpt>
    <wpt lat="51.520480" lon="-0.170340">
        <name>Edgware Road (Bakerloo)</name>
        <desc></desc>
    </wpt>
    <wpt lat="51.502800" lon="0.022540">
        <name>West Silvertown</name>
        <desc></desc>
    </wpt>
    <wpt lat="51.502210" lon="0.032700">
        <name>Pontoon Dock</name>
        <desc></desc>
    </wpt>
    <wpt lat="51.503680" lon="0.048010">
        <name>London City Airport</name>
        <desc></desc>
    </wpt>
    <wpt lat="51.637750" lon="-0.166280">
        <name>Oakleigh Park</name>
        <desc></desc>
    </wpt>
    <wpt lat="51.360100" lon="-0.151270">
        <name>Wallington</name>
        <desc></desc>
    </wpt>
    <wpt lat="51.586440" lon="-0.111710">
        <name>Hornsey</name>
        <desc></desc>
    </wpt>
    <wpt lat="51.452760" lon="-0.147580">
        <name>Clapham South</name>
        <desc></desc>
    </wpt>
    <wpt lat="51.443360" lon="-0.152850">
        <name>Balham</name>
        <desc></desc>
    </wpt>
    <wpt lat="51.427750" lon="-0.168190">
        <name>Tooting Broadway</name>
        <desc></desc>
    </wpt>
    <wpt lat="51.418120" lon="-0.178090">
        <name>Colliers Wood</name>
        <desc></desc>
    </wpt>
    <wpt lat="51.415330" lon="-0.192140">
        <name>South Wimbledon</name>
        <desc></desc>
    </wpt>
    <wpt lat="51.402350" lon="-0.194730">
        <name>Morden</name>
        <desc></desc>
    </wpt>
    <wpt lat="51.576250" lon="0.045410">
        <name>Redbridge</name>
        <desc></desc>
    </wpt>
    <wpt lat="51.481790" lon="-0.324730">
        <name>Syon Lane</name>
        <desc></desc>
    </wpt>
    <wpt lat="51.467680" lon="0.190330">
        <name>Slade Green</name>
        <desc></desc>
    </wpt>
    <wpt lat="51.392420" lon="-0.303910">
        <name>Surbiton</name>
        <desc></desc>
    </wpt>
    <wpt lat="51.586630" lon="-0.002350">
        <name>Wood Street</name>
        <desc></desc>
    </wpt>
    <wpt lat="51.511270" lon="-0.056960">
        <name>Shadwell</name>
        <desc></desc>
    </wpt>
    <wpt lat="51.614030" lon="-0.143010">
        <name>New Southgate</name>
        <desc></desc>
    </wpt>
    <wpt lat="51.607120" lon="-0.120430">
        <name>Bowes Park</name>
        <desc></desc>
    </wpt>
    <wpt lat="51.394850" lon="-0.239620">
        <name>Motspur Park</name>
        <desc></desc>
    </wpt>
    <wpt lat="51.403410" lon="-0.205560">
        <name>South Merton</name>
        <desc></desc>
    </wpt>
    <wpt lat="51.602310" lon="-0.053750">
        <name>Northumberland Park</name>
        <desc></desc>
    </wpt>
    <wpt lat="51.526000" lon="0.146500">
        <name>Dagenham Dock</name>
        <desc></desc>
    </wpt>
    <wpt lat="51.580140" lon="-0.238940">
        <name>Hendon</name>
        <desc></desc>
    </wpt>
    <wpt lat="51.457930" lon="-0.541970">
        <name>Wraysbury</name>
        <desc></desc>
    </wpt>
    <wpt lat="51.455250" lon="-0.320140">
        <name>St Margarets</name>
        <desc></desc>
    </wpt>
    <wpt lat="51.416990" lon="-0.035140">
        <name>New Beckenham</name>
        <desc></desc>
    </wpt>
    <wpt lat="51.547070" lon="-0.042500">
        <name>Homerton</name>
        <desc></desc>
    </wpt>
    <wpt lat="51.257770" lon="-0.004470">
        <name>Oxted</name>
        <desc></desc>
    </wpt>
    <wpt lat="51.373420" lon="0.088710">
        <name>Orpington</name>
        <desc></desc>
    </wpt>
    <wpt lat="51.447490" lon="0.219240">
        <name>Dartford</name>
        <desc></desc>
    </wpt>
    <wpt lat="51.388650" lon="0.074630">
        <name>Petts Wood</name>
        <desc></desc>
    </wpt>
    <wpt lat="51.426940" lon="-0.054510">
        <name>Sydenham</name>
        <desc></desc>
    </wpt>
    <wpt lat="51.424700" lon="-0.084590">
        <name>Gipsy Hill</name>
        <desc></desc>
    </wpt>
    <wpt lat="51.405170" lon="0.057880">
        <name>Chislehurst</name>
        <desc></desc>
    </wpt>
    <wpt lat="51.381390" lon="-0.014500">
        <name>West Wickham</name>
        <desc></desc>
    </wpt>
    <wpt lat="51.469630" lon="-0.137990">
        <name>Wandsworth Road</name>
        <desc></desc>
    </wpt>
    <wpt lat="51.432600" lon="-0.080190">
        <name>Sydenham Hill</name>
        <desc></desc>
    </wpt>
    <wpt lat="51.337490" lon="-0.113950">
        <name>Purley</name>
        <desc></desc>
    </wpt>
    <wpt lat="51.346990" lon="-0.098600">
        <name>Purley Oaks</name>
        <desc></desc>
    </wpt>
    <wpt lat="51.486070" lon="-0.124630">
        <name>Vauxhall</name>
        <desc></desc>
    </wpt>
    <wpt lat="51.554060" lon="-0.250050">
        <name>Neasden</name>
        <desc></desc>
    </wpt>
    <wpt lat="51.543340" lon="-0.174660">
        <name>Swiss Cottage</name>
        <desc></desc>
    </wpt>
    <wpt lat="51.525630" lon="-0.087540">
        <name>Old Street</name>
        <desc></desc>
    </wpt>
    <wpt lat="51.408430" lon="0.017040">
        <name>Bromley North</name>
        <desc></desc>
    </wpt>
    <wpt lat="51.581530" lon="-0.316630">
        <name>Kenton</name>
        <desc></desc>
    </wpt>
    <wpt lat="51.408660" lon="-0.040420">
        <name>Clock House</name>
        <desc></desc>
    </wpt>
    <wpt lat="51.488130" lon="-0.054540">
        <name>South Bermondsey</name>
        <desc></desc>
    </wpt>
    <wpt lat="51.535220" lon="0.034410">
        <name>Upton Park</name>
        <desc></desc>
    </wpt>
    <wpt lat="51.531390" lon="0.017630">
        <name>Plaistow</name>
        <desc></desc>
    </wpt>
    <wpt lat="51.551780" lon="0.025740">
        <name>Wanstead Park</name>
        <desc></desc>
    </wpt>
    <wpt lat="51.530260" lon="-0.124060">
        <name>King's Cross St. Pancras</name>
        <desc></desc>
    </wpt>
    <wpt lat="51.291300" lon="-0.235850">
        <name>Tadworth</name>
        <desc></desc>
    </wpt>
    <wpt lat="51.309100" lon="-0.242380">
        <name>Tattenham Corner</name>
        <desc></desc>
    </wpt>
    <wpt lat="51.367340" lon="-0.117480">
        <name>Waddon</name>
        <desc></desc>
    </wpt>
    <wpt lat="51.401660" lon="0.235330">
        <name>Farningham Road</name>
        <desc></desc>
    </wpt>
    <wpt lat="51.515140" lon="-0.014110">
        <name>Langdon Park</name>
        <desc></desc>
    </wpt>
    <wpt lat="51.487500" lon="-0.309990">
        <name>Brentford</name>
        <desc></desc>
    </wpt>
    <wpt lat="51.485870" lon="-0.122940">
        <name>Vauxhall</name>
        <desc></desc>
    </wpt>
    <wpt lat="51.472180" lon="-0.122500">
        <name>Stockwell</name>
        <desc></desc>
    </wpt>
    <wpt lat="51.548440" lon="-0.192000">
        <name>West Hampstead Thameslink</name>
        <desc></desc>
    </wpt>
    <wpt lat="51.474480" lon="-0.022570">
        <name>Deptford Bridge (DLR)</name>
        <desc></desc>
    </wpt>
    <wpt lat="51.558720" lon="-0.107870">
        <name>Arsenal</name>
        <desc></desc>
    </wpt>
    <wpt lat="51.555310" lon="-0.151230">
        <name>Gospel Oak</name>
        <desc></desc>
    </wpt>
    <wpt lat="51.471820" lon="-0.454180">
        <name>Heathrow Central</name>
        <desc></desc>
    </wpt>
    <wpt lat="51.459100" lon="-0.446300">
        <name>Heathrow Express Terminal 4</name>
        <desc></desc>
    </wpt>
    <wpt lat="51.481140" lon="-0.268190">
        <name>Chiswick</name>
        <desc></desc>
    </wpt>
    <wpt lat="51.517110" lon="-0.267160">
        <name>Acton Main Line</name>
        <desc></desc>
    </wpt>
    <wpt lat="51.472320" lon="-0.487750">
        <name>Heathrow Terminal 5</name>
        <desc></desc>
    </wpt>
    <wpt lat="51.359750" lon="-0.191220">
        <name>Sutton</name>
        <desc></desc>
    </wpt>
    <wpt lat="51.407370" lon="-0.154920">
        <name>Mitcham Eastfields</name>
        <desc></desc>
    </wpt>
    <wpt lat="51.378780" lon="-0.102030">
        <name>West Croydon</name>
        <desc></desc>
    </wpt>
    <wpt lat="51.489200" lon="-0.133540">
        <name>Pimlico</name>
        <desc></desc>
    </wpt>
    <wpt lat="51.508700" lon="0.054960">
        <name>Beckton Park</name>
        <desc></desc>
    </wpt>
    <wpt lat="51.508450" lon="0.046110">
        <name>Royal Albert</name>
        <desc></desc>
    </wpt>
    <wpt lat="51.375020" lon="-0.092610">
        <name>East Croydon</name>
        <desc></desc>
    </wpt>
    <wpt lat="51.507220" lon="-0.205620">
        <name>Holland Park</name>
        <desc></desc>
    </wpt>
    <wpt lat="51.495810" lon="-0.143510">
        <name>Victoria</name>
        <desc></desc>
    </wpt>
    <wpt lat="51.512630" lon="-0.039600">
        <name>Limehouse</name>
        <desc></desc>
    </wpt>
    <wpt lat="51.465340" lon="-0.286590">
        <name>North Sheen</name>
        <desc></desc>
    </wpt>
    <wpt lat="51.592810" lon="-0.432060">
        <name>Willow Lawn Station</name>
        <desc></desc>
    </wpt>
    <wpt lat="51.588700" lon="-0.429110">
        <name>Woody Bay Station</name>
        <desc></desc>
    </wpt>
    <wpt lat="51.475270" lon="-0.183180">
        <name>Imperial Wharf</name>
        <desc></desc>
    </wpt>
    <wpt lat="51.470840" lon="-0.487780">
        <name>Railway station</name>
        <desc></desc>
    </wpt>
    <wpt lat="51.470820" lon="-0.481240">
        <name>T5B</name>
        <desc></desc>
    </wpt>
    <wpt lat="51.470810" lon="-0.476080">
        <name>T5C</name>
        <desc></desc>
    </wpt>
    <wpt lat="51.564770" lon="-0.106110">
        <name>Finsbury Park</name>
        <desc></desc>
    </wpt>
    <wpt lat="51.668600" lon="-0.176270">
        <name>Hadley Wood</name>
        <desc></desc>
    </wpt>
    <wpt lat="51.500010" lon="-0.016190">
        <name>South Quay</name>
        <desc></desc>
    </wpt>
    <wpt lat="51.417290" lon="-0.070100">
        <name>Railway station</name>
        <desc></desc>
    </wpt>
    <wpt lat="51.561660" lon="-0.056830">
        <name>Clapton</name>
        <desc></desc>
    </wpt>
    <wpt lat="51.464760" lon="0.101600">
        <name>Welling Station</name>
        <desc></desc>
    </wpt>
    <wpt lat="51.552280" lon="-0.296810">
        <name>Wembley Central</name>
        <desc></desc>
    </wpt>
    <wpt lat="51.662280" lon="-0.423800">
        <name>Watford Miniature Railway</name>
        <desc></desc>
    </wpt>
    <wpt lat="51.597040" lon="-0.427440">
        <name>Haste Hill Station</name>
        <desc></desc>
    </wpt>
    <wpt lat="51.645650" lon="-0.385020">
        <name>Bushey</name>
        <desc></desc>
    </wpt>
    <wpt lat="51.537520" lon="-0.191950">
        <name>Kilburn High Road</name>
        <desc></desc>
    </wpt>
    <wpt lat="51.412390" lon="-0.065770">
        <name>Anerley</name>
        <desc></desc>
    </wpt>
    <wpt lat="51.577550" lon="-0.105390">
        <name>Harringay</name>
        <desc></desc>
    </wpt>
    <wpt lat="51.522590" lon="-0.156730">
        <name>Baker Street</name>
        <desc></desc>
    </wpt>
    <wpt lat="51.515700" lon="-0.175840">
        <name>Paddington (District, Circle, and Bakerloo Lines)</name>
        <desc></desc>
    </wpt>
    <wpt lat="51.565440" lon="-0.135000">
        <name>Archway</name>
        <desc></desc>
    </wpt>
    <wpt lat="51.377050" lon="-0.389570">
        <name>Hersham</name>
        <desc></desc>
    </wpt>
    <wpt lat="51.490650" lon="-0.205900">
        <name>West Kensington</name>
        <desc></desc>
    </wpt>
    <wpt lat="51.494020" lon="-0.235840">
        <name>Ravenscourt Park</name>
        <desc></desc>
    </wpt>
    <wpt lat="51.510230" lon="-0.288260">
        <name>Ealing Common</name>
        <desc></desc>
    </wpt>
    <wpt lat="51.499250" lon="-0.314160">
        <name>Northfields</name>
        <desc></desc>
    </wpt>
    <wpt lat="51.499340" lon="-0.314180">
        <name>Northfields</name>
        <desc></desc>
    </wpt>
    <wpt lat="51.499450" lon="-0.314260">
        <name>Northfields</name>
        <desc></desc>
    </wpt>
    <wpt lat="51.500900" lon="-0.307040">
        <name>South Ealing</name>
        <desc></desc>
    </wpt>
    <wpt lat="51.500970" lon="-0.307080">
        <name>South Ealing</name>
        <desc></desc>
    </wpt>
    <wpt lat="51.501080" lon="-0.307140">
        <name>South Ealing</name>
        <desc></desc>
    </wpt>
    <wpt lat="51.495750" lon="-0.324730">
        <name>Boston Manor</name>
        <desc></desc>
    </wpt>
    <wpt lat="51.466420" lon="-0.424150">
        <name>Hatton Cross</name>
        <desc></desc>
    </wpt>
    <wpt lat="51.471400" lon="-0.452770">
        <name>Heathrow Terminals 1, 2, 3</name>
        <desc></desc>
    </wpt>
    <wpt lat="51.471220" lon="-0.366740">
        <name>Hounslow Central</name>
        <desc></desc>
    </wpt>
    <wpt lat="51.473200" lon="-0.356270">
        <name>Hounslow East</name>
        <desc></desc>
    </wpt>
    <wpt lat="51.473580" lon="-0.385620">
        <name>Railway station</name>
        <desc></desc>
    </wpt>
    <wpt lat="51.481100" lon="-0.352230">
        <name>Osterley</name>
        <desc></desc>
    </wpt>
    <wpt lat="51.337710" lon="-0.114280">
        <name>Purley</name>
        <desc></desc>
    </wpt>
    <wpt lat="51.517350" lon="-0.248140">
        <name>East Acton</name>
        <desc></desc>
    </wpt>
    <wpt lat="51.530190" lon="-0.293310">
        <name>Hanger Lane</name>
        <desc></desc>
    </wpt>
    <wpt lat="51.518160" lon="-0.280580">
        <name>West Acton</name>
        <desc></desc>
    </wpt>
    <wpt lat="51.532380" lon="0.003730">
        <name>Abbey Road</name>
        <desc></desc>
    </wpt>
    <wpt lat="51.333060" lon="-0.099750">
        <name>Riddlesdown</name>
        <desc></desc>
    </wpt>
    <wpt lat="51.606640" lon="0.033900">
        <name>Woodford</name>
        <desc></desc>
    </wpt>
    <wpt lat="51.545200" lon="-0.202080">
        <name>Brondesbury</name>
        <desc></desc>
    </wpt>
    <wpt lat="51.575480" lon="0.089990">
        <name>Newbury Park</name>
        <desc></desc>
    </wpt>
    <wpt lat="51.576360" lon="0.045410">
        <name>Redbridge</name>
        <desc></desc>
    </wpt>
    <wpt lat="51.575670" lon="0.028620">
        <name>Wanstead</name>
        <desc></desc>
    </wpt>
    <wpt lat="51.591930" lon="0.027390">
        <name>South Woodford</name>
        <desc></desc>
    </wpt>
    <wpt lat="51.438290" lon="-0.127550">
        <name>Streatham Hill</name>
        <desc></desc>
    </wpt>
    <wpt lat="51.581000" lon="0.021530">
        <name>Snaresbrook</name>
        <desc></desc>
    </wpt>
    <wpt lat="51.291340" lon="-0.419950">
        <name>Effingham Junction</name>
        <desc></desc>
    </wpt>
    <wpt lat="51.414570" lon="-0.312350">
        <name>Hampton Wick</name>
        <desc></desc>
    </wpt>
    <wpt lat="51.412870" lon="-0.301500">
        <name>Kingston</name>
        <desc></desc>
    </wpt>
    <wpt lat="51.439170" lon="-0.339270">
        <name>Strawberry Hill</name>
        <desc></desc>
    </wpt>
    <wpt lat="51.468340" lon="-0.208760">
        <name>Putney Bridge</name>
        <desc></desc>
    </wpt>
    <wpt lat="51.434530" lon="-0.199420">
        <name>Wimbledon Park</name>
        <desc></desc>
    </wpt>
    <wpt lat="51.480870" lon="-0.194320">
        <name>Fulham Broadway</name>
        <desc></desc>
    </wpt>
    <wpt lat="51.487300" lon="-0.195610">
        <name>West Brompton</name>
        <desc></desc>
    </wpt>
    <wpt lat="51.461030" lon="-0.216290">
        <name>Putney</name>
        <desc></desc>
    </wpt>
    <wpt lat="51.339530" lon="-0.505520">
        <name>West Byfleet</name>
        <desc></desc>
    </wpt>
    <wpt lat="51.632300" lon="-0.127760">
        <name>Southgate</name>
        <desc></desc>
    </wpt>
    <wpt lat="51.651600" lon="-0.148950">
        <name>Cockfosters</name>
        <desc></desc>
    </wpt>
    <wpt lat="51.647560" lon="-0.131900">
        <name>Oakwood</name>
        <desc></desc>
    </wpt>
    <wpt lat="51.507280" lon="-0.205640">
        <name>Holland Park</name>
        <desc></desc>
    </wpt>
    <wpt lat="51.511870" lon="-0.175140">
        <name>Lancaster Gate</name>
        <desc></desc>
    </wpt>
    <wpt lat="51.510500" lon="-0.187230">
        <name>Queensway</name>
        <desc></desc>
    </wpt>
    <wpt lat="51.513380" lon="-0.088960">
        <name>Bank</name>
        <desc>Bank</desc>
    </wpt>
    <wpt lat="51.655570" lon="-0.030860">
        <name>Brimsdown</name>
        <desc></desc>
    </wpt>
    <wpt lat="51.670880" lon="-0.028590">
        <name>Enfield Lock</name>
        <desc></desc>
    </wpt>
    <wpt lat="51.602330" lon="-0.053790">
        <name>Northumberland Park</name>
        <desc></desc>
    </wpt>
    <wpt lat="51.580510" lon="-0.071680">
        <name>South Tottenham</name>
        <desc></desc>
    </wpt>
    <wpt lat="51.588340" lon="-0.059910">
        <name>Tottenham Hale</name>
        <desc></desc>
    </wpt>
    <wpt lat="51.571280" lon="-0.117200">
        <name>Crouch Hill</name>
        <desc></desc>
    </wpt>
    <wpt lat="51.563630" lon="-0.129490">
        <name>Upper Holloway</name>
        <desc></desc>
    </wpt>
    <wpt lat="51.653160" lon="-0.090740">
        <name>Enfield Chase</name>
        <desc></desc>
    </wpt>
    <wpt lat="51.663180" lon="-0.094560">
        <name>Gordon Hill</name>
        <desc></desc>
    </wpt>
    <wpt lat="51.643330" lon="-0.096960">
        <name>Grange Park</name>
        <desc></desc>
    </wpt>
    <wpt lat="51.668610" lon="-0.176100">
        <name>Hadley Wood</name>
        <desc></desc>
    </wpt>
    <wpt lat="51.668610" lon="-0.176050">
        <name>Hadley Wood</name>
        <desc></desc>
    </wpt>
    <wpt lat="51.648780" lon="-0.172910">
        <name>New Barnet</name>
        <desc></desc>
    </wpt>
    <wpt lat="51.614000" lon="-0.143030">
        <name>New Southgate</name>
        <desc></desc>
    </wpt>
    <wpt lat="51.651420" lon="-0.149100">
        <name>Cockfosters</name>
        <desc></desc>
    </wpt>
    <wpt lat="51.651500" lon="-0.149030">
        <name>Cockfosters</name>
        <desc></desc>
    </wpt>
    <wpt lat="51.647640" lon="-0.131810">
        <name>Oakwood</name>
        <desc></desc>
    </wpt>
    <wpt lat="51.471490" lon="-0.452670">
        <name>Heathrow Terminals 1, 2, 3</name>
        <desc></desc>
    </wpt>
    <wpt lat="51.458660" lon="-0.445430">
        <name>Heathrow Terminal 4</name>
        <desc></desc>
    </wpt>
    <wpt lat="51.361060" lon="-0.348440">
        <name>Claygate</name>
        <desc></desc>
    </wpt>
    <wpt lat="51.336120" lon="-0.362530">
        <name>Oxshott</name>
        <desc></desc>
    </wpt>
    <wpt lat="51.373100" lon="-0.484520">
        <name>Addlestone</name>
        <desc></desc>
    </wpt>
    <wpt lat="51.387120" lon="-0.509480">
        <name>Chertsey</name>
        <desc></desc>
    </wpt>
    <wpt lat="51.490250" lon="-0.213430">
        <name>Barons Court</name>
        <desc></desc>
    </wpt>
    <wpt lat="51.616290" lon="-0.133150">
        <name>Arnos Grove</name>
        <desc></desc>
    </wpt>
    <wpt lat="51.421000" lon="-0.409510">
        <name>Kempton Park</name>
        <desc></desc>
    </wpt>
    <wpt lat="51.396890" lon="-0.446940">
        <name>Shepperton</name>
        <desc></desc>
    </wpt>
    <wpt lat="51.418300" lon="-0.417420">
        <name>Sunbury</name>
        <desc></desc>
    </wpt>
    <wpt lat="51.413050" lon="-0.431110">
        <name>Upper Halliford</name>
        <desc></desc>
    </wpt>
    <wpt lat="51.264030" lon="-0.502850">
        <name>Clandon</name>
        <desc></desc>
    </wpt>
    <wpt lat="51.520520" lon="-0.134360">
        <name>Goodge Street</name>
        <desc></desc>
    </wpt>
    <wpt lat="51.503020" lon="-0.152580">
        <name>Hyde Park Corner</name>
        <desc></desc>
    </wpt>
    <wpt lat="51.501660" lon="-0.160660">
        <name>Knightsbridge</name>
        <desc></desc>
    </wpt>
    <wpt lat="51.532290" lon="-0.105950">
        <name>Angel</name>
        <desc></desc>
    </wpt>
    <wpt lat="51.539220" lon="-0.142660">
        <name>Camden Town</name>
        <desc></desc>
    </wpt>
    <wpt lat="51.587260" lon="-0.164960">
        <name>East Finchley</name>
        <desc></desc>
    </wpt>
    <wpt lat="51.577640" lon="-0.145780">
        <name>Highgate</name>
        <desc></desc>
    </wpt>
    <wpt lat="51.509720" lon="-0.134710">
        <name>Piccadilly Circus</name>
        <desc></desc>
    </wpt>
    <wpt lat="51.556810" lon="-0.138430">
        <name>Tufnell Park</name>
        <desc></desc>
    </wpt>
    <wpt lat="51.458910" lon="-0.445940">
        <name>Heathrow Express Terminal 4</name>
        <desc></desc>
    </wpt>
    <wpt lat="51.583130" lon="-0.226100">
        <name>Hendon Central</name>
        <desc></desc>
    </wpt>
    <wpt lat="51.489510" lon="-0.287200">
        <name>Kew Bridge</name>
        <desc></desc>
    </wpt>
    <wpt lat="51.323840" lon="-0.238840">
        <name>Epsom Downs</name>
        <desc></desc>
    </wpt>
    <wpt lat="51.650750" lon="-0.194560">
        <name>High Barnet</name>
        <desc></desc>
    </wpt>
    <wpt lat="51.618320" lon="-0.110490">
        <name>Palmers Green</name>
        <desc></desc>
    </wpt>
    <wpt lat="51.633940" lon="-0.101000">
        <name>Winchmore Hill</name>
        <desc></desc>
    </wpt>
    <wpt lat="51.509120" lon="0.017570">
        <name>Royal Victoria</name>
        <desc></desc>
    </wpt>
    <wpt lat="51.550410" lon="-0.140730">
        <name>Kentish Town</name>
        <desc></desc>
    </wpt>
    <wpt lat="51.576700" lon="-0.213550">
        <name>Brent Cross</name>
        <desc></desc>
    </wpt>
    <wpt lat="51.543970" lon="-0.275940">
        <name>Stonebridge Park</name>
        <desc></desc>
    </wpt>
    <wpt lat="51.576570" lon="-0.397050">
        <name>Eastcote</name>
        <desc></desc>
    </wpt>
    <wpt lat="51.575160" lon="-0.371300">
        <name>Rayners Lane</name>
        <desc></desc>
    </wpt>
    <wpt lat="51.546280" lon="-0.478270">
        <name>Uxbridge</name>
        <desc></desc>
    </wpt>
    <wpt lat="51.526850" lon="-0.024850">
        <name>Bow Road</name>
        <desc></desc>
    </wpt>
    <wpt lat="51.491660" lon="-0.275320">
        <name>Gunnersbury</name>
        <desc></desc>
    </wpt>
    <wpt lat="51.463130" lon="-0.301080">
        <name>Richmond</name>
        <desc></desc>
    </wpt>
    <wpt lat="51.465240" lon="-0.286570">
        <name>North Sheen</name>
        <desc></desc>
    </wpt>
    <wpt lat="51.350220" lon="-0.257090">
        <name>Ewell West</name>
        <desc></desc>
    </wpt>
    <wpt lat="51.348660" lon="-0.317330">
        <name>Railway station</name>
        <desc></desc>
    </wpt>
    <wpt lat="51.363980" lon="-0.300760">
        <name>Chessington North</name>
        <desc></desc>
    </wpt>
    <wpt lat="51.555330" lon="-0.151200">
        <name>Gospel Oak</name>
        <desc></desc>
    </wpt>
    <wpt lat="51.542420" lon="-0.346280">
        <name>Greenford</name>
        <desc></desc>
    </wpt>
    <wpt lat="51.542530" lon="-0.346220">
        <name>Greenford</name>
        <desc></desc>
    </wpt>
    <wpt lat="51.542320" lon="-0.345640">
        <name>Greenford</name>
        <desc></desc>
    </wpt>
    <wpt lat="51.557030" lon="-0.399290">
        <name>South Ruislip</name>
        <desc></desc>
    </wpt>
    <wpt lat="51.569630" lon="-0.437660">
        <name>West Ruislip</name>
        <desc></desc>
    </wpt>
    <wpt lat="51.575190" lon="-0.371280">
        <name>Rayners Lane</name>
        <desc></desc>
    </wpt>
    <wpt lat="51.501610" lon="-0.160590">
        <name>Knightsbridge</name>
        <desc></desc>
    </wpt>
    <wpt lat="51.515150" lon="-0.071880">
        <name>Aldgate East</name>
        <desc></desc>
    </wpt>
    <wpt lat="51.526870" lon="-0.024840">
        <name>Bow Road</name>
        <desc></desc>
    </wpt>
    <wpt lat="51.521710" lon="-0.046730">
        <name>Stepney Green</name>
        <desc></desc>
    </wpt>
    <wpt lat="51.551750" lon="0.025720">
        <name>Wanstead Park</name>
        <desc></desc>
    </wpt>
    <wpt lat="51.563520" lon="0.008470">
        <name>Leytonstone High Road</name>
        <desc></desc>
    </wpt>
    <wpt lat="51.479850" lon="-0.485750">
        <name>Station B</name>
        <desc></desc>
    </wpt>
    <wpt lat="51.479780" lon="-0.488290">
        <name>Station A</name>
        <desc></desc>
    </wpt>
    <wpt lat="51.479780" lon="-0.488230">
        <name>Station A</name>
        <desc></desc>
    </wpt>
    <wpt lat="51.479850" lon="-0.485810">
        <name>Station B</name>
        <desc></desc>
    </wpt>
    <wpt lat="51.629730" lon="-0.432260">
        <name>Moor Park</name>
        <desc></desc>
    </wpt>
    <wpt lat="51.640210" lon="-0.473570">
        <name>Rickmansworth</name>
        <desc></desc>
    </wpt>
    <wpt lat="51.432350" lon="-0.503210">
        <name>Staines</name>
        <desc></desc>
    </wpt>
    <wpt lat="51.602770" lon="-0.264060">
        <name>Burnt Oak</name>
        <desc></desc>
    </wpt>
    <wpt lat="51.632330" lon="-0.127810">
        <name>Southgate</name>
        <desc></desc>
    </wpt>
    <wpt lat="51.491480" lon="-0.014890">
        <name>Mudchute</name>
        <desc></desc>
    </wpt>
    <wpt lat="51.415940" lon="-0.371820">
        <name>Hampton</name>
        <desc></desc>
    </wpt>
    <wpt lat="51.442860" lon="-0.151760">
        <name>Balham</name>
        <desc></desc>
    </wpt>
    <wpt lat="51.453370" lon="-0.102400">
        <name>Herne Hill</name>
        <desc></desc>
    </wpt>
    <wpt lat="51.453590" lon="-0.102370">
        <name>Herne Hill</name>
        <desc></desc>
    </wpt>
    <wpt lat="51.417640" lon="-0.072500">
        <name>Railway station</name>
        <desc></desc>
    </wpt>
    <wpt lat="51.417830" lon="-0.060470">
        <name>Railway station</name>
        <desc></desc>
    </wpt>
    <wpt lat="51.511280" lon="-0.056870">
        <name>Shadwell</name>
        <desc></desc>
    </wpt>
    <wpt lat="51.317990" lon="-0.389310">
        <name>Cobham &amp; Stoke D'Abernon</name>
        <desc></desc>
    </wpt>
    <wpt lat="51.336150" lon="-0.362560">
        <name>Oxshott</name>
        <desc></desc>
    </wpt>
    <wpt lat="51.375120" lon="-0.340430">
        <name>Hinchley Wood</name>
        <desc></desc>
    </wpt>
    <wpt lat="51.375370" lon="-0.340640">
        <name>Hinchley Wood</name>
        <desc></desc>
    </wpt>
    <wpt lat="51.498890" lon="-0.112290">
        <name>Lambeth North</name>
        <desc></desc>
    </wpt>
    <wpt lat="51.509950" lon="-0.134430">
        <name>Piccadilly Circus</name>
        <desc></desc>
    </wpt>
    <wpt lat="51.501090" lon="-0.093410">
        <name>Borough</name>
        <desc></desc>
    </wpt>
    <wpt lat="51.520390" lon="0.004410">
        <name>Star Lane</name>
        <desc></desc>
    </wpt>
    <wpt lat="51.537780" lon="-0.000300">
        <name>Stratford High Street</name>
        <desc></desc>
    </wpt>
    <wpt lat="51.515130" lon="-0.071850">
        <name>Aldgate East</name>
        <desc></desc>
    </wpt>
    <wpt lat="51.540710" lon="-0.096180">
        <name>Essex Road</name>
        <desc></desc>
    </wpt>
    <wpt lat="51.520550" lon="-0.134230">
        <name>Goodge Street</name>
        <desc></desc>
    </wpt>
    <wpt lat="51.552730" lon="-0.113010">
        <name>Holloway Road</name>
        <desc></desc>
    </wpt>
    <wpt lat="51.471320" lon="-0.366730">
        <name>Hounslow Central</name>
        <desc></desc>
    </wpt>
    <wpt lat="51.473230" lon="-0.356310">
        <name>Hounslow East</name>
        <desc></desc>
    </wpt>
    <wpt lat="51.473670" lon="-0.385650">
        <name>Railway station</name>
        <desc></desc>
    </wpt>
    <wpt lat="51.498790" lon="-0.112370">
        <name>Lambeth North</name>
        <desc></desc>
    </wpt>
    <wpt lat="51.570320" lon="-0.096380">
        <name>Manor House</name>
        <desc></desc>
    </wpt>
    <wpt lat="51.481120" lon="-0.352300">
        <name>Osterley</name>
        <desc></desc>
    </wpt>
    <wpt lat="51.494240" lon="-0.235770">
        <name>Ravenscourt Park</name>
        <desc></desc>
    </wpt>
    <wpt lat="51.487270" lon="-0.195660">
        <name>West Brompton</name>
        <desc></desc>
    </wpt>
    <wpt lat="51.490670" lon="-0.205920">
        <name>West Kensington</name>
        <desc></desc>
    </wpt>
    <wpt lat="51.607070" lon="-0.124130">
        <name>Bounds Green</name>
        <desc></desc>
    </wpt>
    <wpt lat="51.608250" lon="-0.210150">
        <name>Mill Hill East</name>
        <desc></desc>
    </wpt>
    <wpt lat="51.590350" lon="-0.102850">
        <name>Turnpike Lane</name>
        <desc></desc>
    </wpt>
    <wpt lat="51.609490" lon="-0.188300">
        <name>West Finchley</name>
        <desc></desc>
    </wpt>
    <wpt lat="51.597420" lon="-0.109760">
        <name>Wood Green</name>
        <desc></desc>
    </wpt>
    <wpt lat="51.618100" lon="-0.185550">
        <name>Woodside Park</name>
        <desc></desc>
    </wpt>
    <wpt lat="51.602840" lon="-0.263950">
        <name>Burnt Oak</name>
        <desc></desc>
    </wpt>
    <wpt lat="51.462120" lon="-0.361750">
        <name>Hounslow</name>
        <desc></desc>
    </wpt>
    <wpt lat="51.523990" lon="-0.059420">
        <name>Bethnal Green</name>
        <desc></desc>
    </wpt>
    <wpt lat="51.537490" lon="-0.191930">
        <name>Kilburn High Road</name>
        <desc></desc>
    </wpt>
    <wpt lat="51.343900" lon="-0.198880">
        <name>Belmont</name>
        <desc></desc>
    </wpt>
    <wpt lat="51.417620" lon="-0.072520">
        <name>Railway station</name>
        <desc></desc>
    </wpt>
    <wpt lat="51.559130" lon="0.070020">
        <name>Ilford</name>
        <desc></desc>
    </wpt>
    <wpt lat="51.563910" lon="0.096880">
        <name>Seven Kings</name>
        <desc></desc>
    </wpt>
    <wpt lat="51.564650" lon="-0.352220">
        <name>South Harrow</name>
        <desc></desc>
    </wpt>
    <wpt lat="51.550790" lon="-0.315680">
        <name>Sudbury Town</name>
        <desc></desc>
    </wpt>
    <wpt lat="51.477100" lon="-0.285180">
        <name>Kew Gardens Station</name>
        <desc></desc>
    </wpt>
    <wpt lat="51.508770" lon="-0.262950">
        <name>Acton Central</name>
        <desc></desc>
    </wpt>
    <wpt lat="51.557010" lon="-0.336130">
        <name>Sudbury Hill</name>
        <desc></desc>
    </wpt>
    <wpt lat="51.588190" lon="-0.060180">
        <name>Tottenham Hale</name>
        <desc></desc>
    </wpt>
    <wpt lat="51.520260" lon="-0.166560">
        <name>Edgware Road</name>
        <desc></desc>
    </wpt>
    <wpt lat="51.505180" lon="-0.020920">
        <name>Canary Wharf</name>
        <desc></desc>
    </wpt>
    <wpt lat="51.501950" lon="0.062140">
        <name>King George V</name>
        <desc></desc>
    </wpt>
    <wpt lat="51.494040" lon="-0.174100">
        <name>South Kensington</name>
        <desc></desc>
    </wpt>
    <wpt lat="51.417760" lon="-0.072040">
        <name>Railway station</name>
        <desc></desc>
    </wpt>
    <wpt lat="51.417850" lon="-0.071940">
        <name>Railway station</name>
        <desc></desc>
    </wpt>
    <wpt lat="51.417820" lon="-0.071970">
        <name>Railway station</name>
        <desc></desc>
    </wpt>
    <wpt lat="51.527270" lon="-0.055030">
        <name>Bethnal Green</name>
        <desc></desc>
    </wpt>
    <wpt lat="51.545710" lon="-0.009700">
        <name>Stratford International</name>
        <desc></desc>
    </wpt>
    <wpt lat="51.462070" lon="0.027490">
        <name>Kidbrooke</name>
        <desc></desc>
    </wpt>
    <wpt lat="51.509670" lon="-0.134670">
        <name>Piccadilly Circus</name>
        <desc></desc>
    </wpt>
    <wpt lat="51.519470" lon="-0.061110">
        <name>Whitechapel</name>
        <desc></desc>
    </wpt>
    <wpt lat="51.538520" lon="-0.075380">
        <name>Haggerston</name>
        <desc></desc>
    </wpt>
    <wpt lat="51.500780" lon="-0.051910">
        <name>Rotherhithe</name>
        <desc></desc>
    </wpt>
    <wpt lat="51.493540" lon="-0.048010">
        <name>Surrey Quays</name>
        <desc></desc>
    </wpt>
    <wpt lat="51.504430" lon="-0.056020">
        <name>Wapping</name>
        <desc></desc>
    </wpt>
    <wpt lat="51.468040" lon="-0.089600">
        <name>Denmark Hill</name>
        <desc></desc>
    </wpt>
    <wpt lat="51.469960" lon="-0.138520">
        <name>Wandsworth Road</name>
        <desc></desc>
    </wpt>
    <wpt lat="51.465000" lon="-0.131590">
        <name>Clapham High Street</name>
        <desc></desc>
    </wpt>
    <wpt lat="51.531290" lon="-0.075850">
        <name>Hoxton</name>
        <desc></desc>
    </wpt>
    <wpt lat="51.473570" lon="-0.057280">
        <name>Queens Road Peckham</name>
        <desc></desc>
    </wpt>
    <wpt lat="51.541290" lon="-0.179140">
        <name>South Hampstead</name>
        <desc></desc>
    </wpt>
    <wpt lat="51.641500" lon="-0.069100">
        <name>Bush Hill Park</name>
        <desc></desc>
    </wpt>
    <wpt lat="51.624930" lon="-0.060970">
        <name>Edmonton Green</name>
        <desc></desc>
    </wpt>
    <wpt lat="51.582910" lon="-0.075100">
        <name>Seven Sisters</name>
        <desc></desc>
    </wpt>
    <wpt lat="51.417000" lon="-0.061120">
        <name>Railway station</name>
        <desc></desc>
    </wpt>
    <wpt lat="51.464680" lon="-0.170340">
        <name>Clapham Junction</name>
        <desc></desc>
    </wpt>
    <wpt lat="51.543500" lon="-0.024100">
        <name>Hackney Wick</name>
        <desc></desc>
    </wpt>
    <wpt lat="51.502960" lon="-0.152560">
        <name>Hyde Park Corner</name>
        <desc></desc>
    </wpt>
    <wpt lat="51.642280" lon="-0.035210">
        <name>Ponders End</name>
        <desc></desc>
    </wpt>
    <wpt lat="51.514950" lon="-0.097620">
        <name>St Paul's</name>
        <desc></desc>
    </wpt>
    <wpt lat="51.464970" lon="-0.012900">
        <name>Lewisham</name>
        <desc></desc>
    </wpt>
    <wpt lat="51.462870" lon="-0.113330">
        <name>Brixton</name>
        <desc></desc>
    </wpt>
    <wpt lat="51.349720" lon="-0.481190">
        <name>Byfleet and New Haw</name>
        <desc></desc>
    </wpt>
    <wpt lat="51.520170" lon="-0.098480">
        <name>Barbican</name>
        <desc></desc>
    </wpt>
    <wpt lat="51.585820" lon="0.088620">
        <name>Barkingside</name>
        <desc></desc>
    </wpt>
    <wpt lat="51.514300" lon="-0.149000">
        <name>Bond Street</name>
        <desc></desc>
    </wpt>
    <wpt lat="51.625940" lon="0.046820">
        <name>Buckhurst Hill</name>
        <desc></desc>
    </wpt>
    <wpt lat="51.518110" lon="-0.112360">
        <name>Chancery Lane</name>
        <desc></desc>
    </wpt>
    <wpt lat="51.617690" lon="0.075520">
        <name>Chigwell</name>
        <desc></desc>
    </wpt>
    <wpt lat="51.645280" lon="0.083580">
        <name>Debden</name>
        <desc></desc>
    </wpt>
    <wpt lat="51.595950" lon="0.091130">
        <name>Fairlop</name>
        <desc></desc>
    </wpt>
    <wpt lat="51.576570" lon="0.065310">
        <name>Gants Hill</name>
        <desc></desc>
    </wpt>
    <wpt lat="51.613130" lon="0.092500">
        <name>Grange Hill</name>
        <desc></desc>
    </wpt>
    <wpt lat="51.603320" lon="0.093380">
        <name>Hainault</name>
        <desc></desc>
    </wpt>
    <wpt lat="51.525340" lon="-0.033430">
        <name>Mile End</name>
        <desc></desc>
    </wpt>
    <wpt lat="51.510630" lon="-0.086130">
        <name>Monument</name>
        <desc></desc>
    </wpt>
    <wpt lat="51.617120" lon="0.043880">
        <name>Roding Valley</name>
        <desc></desc>
    </wpt>
    <wpt lat="51.663770" lon="-0.396840">
        <name>Watford Junction</name>
        <desc></desc>
    </wpt>
    <wpt lat="51.289810" lon="0.193920">
        <name>Bat &amp; Ball</name>
        <desc></desc>
    </wpt>
    <wpt lat="51.362800" lon="0.204350">
        <name>Eynsford</name>
        <desc></desc>
    </wpt>
    <wpt lat="51.313100" lon="0.197080">
        <name>Otford</name>
        <desc></desc>
    </wpt>
    <wpt lat="51.332130" lon="0.188810">
        <name>Shoreham</name>
        <desc></desc>
    </wpt>
    <wpt lat="51.257750" lon="-0.004520">
        <name>Oxted</name>
        <desc></desc>
    </wpt>
    <wpt lat="51.289700" lon="-0.051670">
        <name>Woldingham</name>
        <desc></desc>
    </wpt>
    <wpt lat="51.317980" lon="-0.307150">
        <name>Ashtead</name>
        <desc></desc>
    </wpt>
    <wpt lat="51.345280" lon="-0.241280">
        <name>Ewell East</name>
        <desc></desc>
    </wpt>
    <wpt lat="51.254010" lon="-0.328660">
        <name>Box Hill &amp; Westhumble</name>
        <desc></desc>
    </wpt>
    <wpt lat="51.299110" lon="-0.333010">
        <name>Leatherhead</name>
        <desc></desc>
    </wpt>
    <wpt lat="51.303770" lon="-0.077190">
        <name>Whyteleafe South</name>
        <desc></desc>
    </wpt>
    <wpt lat="51.309930" lon="-0.080960">
        <name>Whyteleafe</name>
        <desc></desc>
    </wpt>
    <wpt lat="51.309350" lon="-0.169370">
        <name>Chipstead</name>
        <desc></desc>
    </wpt>
    <wpt lat="51.294760" lon="-0.211060">
        <name>Kingswood</name>
        <desc></desc>
    </wpt>
    <wpt lat="51.291310" lon="-0.235790">
        <name>Tadworth</name>
        <desc></desc>
    </wpt>
    <wpt lat="51.491090" lon="0.120460">
        <name>Abbey Wood</name>
        <desc></desc>
    </wpt>
    <wpt lat="51.654160" lon="-0.518330">
        <name>Chorleywood</name>
        <desc></desc>
    </wpt>
    <wpt lat="51.361060" lon="-0.348480">
        <name>Claygate</name>
        <desc></desc>
    </wpt>
    <wpt lat="51.291350" lon="-0.420000">
        <name>Effingham Junction</name>
        <desc></desc>
    </wpt>
    <wpt lat="51.653040" lon="-0.280060">
        <name>Elstree &amp; Borehamwood</name>
        <desc></desc>
    </wpt>
    <wpt lat="51.356700" lon="-0.308120">
        <name>Chessington South</name>
        <desc></desc>
    </wpt>
    <wpt lat="51.363260" lon="-0.248520">
        <name>Stoneleigh</name>
        <desc></desc>
    </wpt>
    <wpt lat="51.520120" lon="-0.104790">
        <name>Farringdon</name>
        <desc></desc>
    </wpt>
    <wpt lat="51.511890" lon="-0.095220">
        <name>Mansion House</name>
        <desc></desc>
    </wpt>
    <wpt lat="51.336100" lon="-0.362530">
        <name>Oxshott</name>
        <desc></desc>
    </wpt>
    <wpt lat="51.336110" lon="-0.362550">
        <name>Oxshott</name>
        <desc></desc>
    </wpt>
    <wpt lat="51.502410" lon="-0.113610">
        <name>London Waterloo</name>
        <desc></desc>
    </wpt>
    <wpt lat="51.531990" lon="-0.126650">
        <name>St. Pancras</name>
        <desc></desc>
    </wpt>
    <wpt lat="51.518580" lon="-0.081510">
        <name>Liverpool Street</name>
        <desc>Liverpool Street</desc>
    </wpt>
    <wpt lat="51.528930" lon="-0.134500">
        <name>Euston</name>
        <desc></desc>
    </wpt>
    <wpt lat="51.511300" lon="-0.077540">
        <name>Fenchurch Street</name>
        <desc></desc>
    </wpt>
    <wpt lat="51.378100" lon="-0.153750">
        <name>Railway station</name>
        <desc></desc>
    </wpt>
    <wpt lat="51.392830" lon="-0.157390">
        <name>Railway station</name>
        <desc></desc>
    </wpt>
    <wpt lat="51.514480" lon="0.008370">
        <name>Canning Town</name>
        <desc></desc>
    </wpt>
    <wpt lat="51.359720" lon="-0.190740">
        <name>Sutton Station</name>
        <desc></desc>
    </wpt>
    <wpt lat="51.507740" lon="-0.124120">
        <name>Charing Cross</name>
        <desc></desc>
    </wpt>
    <wpt lat="51.375050" lon="-0.092690">
        <name>East Croydon Station</name>
        <desc></desc>
    </wpt>
    <wpt lat="51.412410" lon="-0.284020">
        <name>Norbiton Rail</name>
        <desc></desc>
    </wpt>
    <wpt lat="51.579250" lon="-0.336650">
        <name>Harrow-on-the-Hill</name>
        <desc></desc>
    </wpt>
    <wpt lat="51.502930" lon="-0.021480">
        <name>Heron Quays</name>
        <desc></desc>
    </wpt>
    <wpt lat="51.500220" lon="0.003550">
        <name>North Greenwich</name>
        <desc></desc>
    </wpt>
    <wpt lat="51.503880" lon="-0.104940">
        <name>Southwark</name>
        <desc></desc>
    </wpt>
    <wpt lat="51.497980" lon="-0.049730">
        <name>Canada Water</name>
        <desc></desc>
    </wpt>
    <wpt lat="51.517370" lon="-0.119900">
        <name>Holborn</name>
        <desc></desc>
    </wpt>
    <wpt lat="51.619170" lon="-0.302810">
        <name>Stanmore</name>
        <desc></desc>
    </wpt>
    <wpt lat="51.544040" lon="0.165110">
        <name>Dagenham East</name>
        <desc></desc>
    </wpt>
    <wpt lat="51.553910" lon="0.218320">
        <name>Hornchurch</name>
        <desc></desc>
    </wpt>
    <wpt lat="51.541590" lon="0.146250">
        <name>Dagenham Heathway</name>
        <desc></desc>
    </wpt>
    <wpt lat="51.538300" lon="0.100160">
        <name>Upney</name>
        <desc></desc>
    </wpt>
    <wpt lat="51.539750" lon="0.080460">
        <name>Barking</name>
        <desc></desc>
    </wpt>
    <wpt lat="51.524730" lon="-0.012020">
        <name>Bromley-by-Bow</name>
        <desc></desc>
    </wpt>
    <wpt lat="51.555220" lon="-0.165410">
        <name>Hampstead Heath</name>
        <desc></desc>
    </wpt>
    <wpt lat="51.550440" lon="-0.164360">
        <name>Belsize Park</name>
        <desc></desc>
    </wpt>
    <wpt lat="51.535030" lon="-0.193930">
        <name>Kilburn Park</name>
        <desc></desc>
    </wpt>
    <wpt lat="51.534010" lon="-0.205490">
        <name>Queen's Park</name>
        <desc></desc>
    </wpt>
    <wpt lat="51.469810" lon="-0.069770">
        <name>Peckham Rye</name>
        <desc></desc>
    </wpt>
    <wpt lat="51.475040" lon="-0.040320">
        <name>New Cross Gate</name>
        <desc></desc>
    </wpt>
    <wpt lat="51.534700" lon="-0.174120">
        <name>St. John's Wood</name>
        <desc></desc>
    </wpt>
    <wpt lat="51.530580" lon="-0.224700">
        <name>Kensal Green</name>
        <desc></desc>
    </wpt>
    <wpt lat="51.468040" lon="-0.267130">
        <name>Mortlake</name>
        <desc></desc>
    </wpt>
    <wpt lat="51.494590" lon="-0.100310">
        <name>Elephant and Castle</name>
        <desc></desc>
    </wpt>
    <wpt lat="51.494340" lon="-0.183000">
        <name>Gloucester Road</name>
        <desc></desc>
    </wpt>
    <wpt lat="51.523730" lon="-0.143920">
        <name>Great Portland Street</name>
        <desc></desc>
    </wpt>
    <wpt lat="51.577440" lon="-0.105230">
        <name>Harringay</name>
        <desc></desc>
    </wpt>
    <wpt lat="51.513640" lon="-0.158460">
        <name>Marble Arch</name>
        <desc></desc>
    </wpt>
    <wpt lat="51.548170" lon="-0.075810">
        <name>Dalston Kingsland</name>
        <desc></desc>
    </wpt>
    <wpt lat="51.595390" lon="-0.250090">
        <name>Colindale</name>
        <desc></desc>
    </wpt>
    <wpt lat="51.548480" lon="-0.118300">
        <name>Caledonian Road</name>
        <desc></desc>
    </wpt>
    <wpt lat="51.495890" lon="-0.100720">
        <name>Elephant and Castle</name>
        <desc></desc>
    </wpt>
    <wpt lat="51.509840" lon="-0.076940">
        <name>Tower Hill</name>
        <desc></desc>
    </wpt>
    <wpt lat="51.652620" lon="-0.279710">
        <name>Elstree &amp; Borehamwood</name>
        <desc></desc>
    </wpt>
    <wpt lat="51.540850" lon="-0.210120">
        <name>Brondesbury Park</name>
        <desc></desc>
    </wpt>
    <wpt lat="51.494090" lon="-0.173900">
        <name>South Kensington</name>
        <desc></desc>
    </wpt>
    <wpt lat="51.547190" lon="-0.180810">
        <name>Finchley Road</name>
        <desc></desc>
    </wpt>
    <wpt lat="51.556680" lon="-0.178210">
        <name>Hampstead</name>
        <desc></desc>
    </wpt>
    <wpt lat="51.544080" lon="-0.153610">
        <name>Chalk Farm</name>
        <desc></desc>
    </wpt>
    <wpt lat="51.516020" lon="-0.103580">
        <name>City Thameslink</name>
        <desc></desc>
    </wpt>
    <wpt lat="51.544920" lon="-0.008710">
        <name>Stratford International Station</name>
        <desc></desc>
    </wpt>
    <wpt lat="51.508510" lon="-0.195970">
        <name>Notting Hill Gate</name>
        <desc></desc>
    </wpt>
    <wpt lat="51.501910" lon="-0.226600">
        <name>Goldhawk Road</name>
        <desc></desc>
    </wpt>
    <wpt lat="51.504760" lon="-0.218630">
        <name>Shepherd's Bush</name>
        <desc></desc>
    </wpt>
    <wpt lat="51.572250" lon="-0.194160">
        <name>Golders Green</name>
        <desc></desc>
    </wpt>
    <wpt lat="51.550240" lon="-0.183170">
        <name>Finchley Road and Frognal</name>
        <desc></desc>
    </wpt>
    <wpt lat="51.568640" lon="0.220280">
        <name>Emerson Park</name>
        <desc></desc>
    </wpt>
    <wpt lat="51.402400" lon="-0.342690">
        <name>Hampton Court</name>
        <desc></desc>
    </wpt>
    <wpt lat="51.592820" lon="0.232830">
        <name>Harold Wood</name>
        <desc></desc>
    </wpt>
    <wpt lat="51.527770" lon="-0.020930">
        <name>Bow Church</name>
        <desc></desc>
    </wpt>
    <wpt lat="51.492100" lon="-0.223260">
        <name>Hammersmith</name>
        <desc></desc>
    </wpt>
    <wpt lat="51.641540" lon="0.055140">
        <name>Loughton</name>
        <desc></desc>
    </wpt>
    <wpt lat="51.511000" lon="-0.114180">
        <name>Temple</name>
        <desc></desc>
    </wpt>
    <wpt lat="51.511670" lon="-0.128210">
        <name>Leicester Square</name>
        <desc></desc>
    </wpt>
    <wpt lat="51.512960" lon="-0.124200">
        <name>Covent Garden</name>
        <desc></desc>
    </wpt>
    <wpt lat="51.518490" lon="-0.088400">
        <name>Moorgate</name>
        <desc></desc>
    </wpt>
    <wpt lat="51.503610" lon="-0.019460">
        <name>Canary Wharf</name>
        <desc></desc>
    </wpt>
    <wpt lat="51.505070" lon="-0.020930">
        <name>Canary Wharf</name>
        <desc></desc>
    </wpt>
    <wpt lat="51.497870" lon="-0.063750">
        <name>Bermondsey</name>
        <desc></desc>
    </wpt>
    <wpt lat="51.541310" lon="-0.003220">
        <name>Stratford</name>
        <desc></desc>
    </wpt>
    <wpt lat="51.510600" lon="-0.074060">
        <name>Tower Gateway</name>
        <desc></desc>
    </wpt>
    <wpt lat="51.510350" lon="-0.090750">
        <name>Cannon Street</name>
        <desc></desc>
    </wpt>
    <wpt lat="51.495070" lon="-0.144080">
        <name>London Victoria</name>
        <desc></desc>
    </wpt>
    <wpt lat="51.671780" lon="0.103100">
        <name>Theydon Bois</name>
        <desc></desc>
    </wpt>
    <wpt lat="51.558630" lon="-0.212330">
        <name>Cricklewood</name>
        <desc></desc>
    </wpt>
    <wpt lat="51.546780" lon="-0.190830">
        <name>West Hampstead</name>
        <desc></desc>
    </wpt>
    <wpt lat="51.509980" lon="-0.103270">
        <name>London Blackfriars</name>
        <desc></desc>
    </wpt>
    <wpt lat="51.581530" lon="0.205730">
        <name>Gidea Park</name>
        <desc></desc>
    </wpt>
    <wpt lat="51.568050" lon="0.129580">
        <name>Chadwell Heath</name>
        <desc></desc>
    </wpt>
    <wpt lat="51.565560" lon="0.110660">
        <name>Goodmayes</name>
        <desc></desc>
    </wpt>
    <wpt lat="51.549510" lon="0.024630">
        <name>Forest Gate</name>
        <desc></desc>
    </wpt>
    <wpt lat="51.552530" lon="0.046470">
        <name>Manor Park</name>
        <desc></desc>
    </wpt>
    <wpt lat="51.523910" lon="-0.059580">
        <name>Bethnal Green</name>
        <desc></desc>
    </wpt>
    <wpt lat="51.361580" lon="-0.457440">
        <name>Weybridge</name>
        <desc></desc>
    </wpt>
    <wpt lat="51.500310" lon="-0.192100">
        <name>High Street Kensington</name>
        <desc></desc>
    </wpt>
    <wpt lat="51.511640" lon="-0.103790">
        <name>Blackfriars</name>
        <desc></desc>
    </wpt>
    <wpt lat="51.460840" lon="-0.187920">
        <name>Wandsworth Town</name>
        <desc></desc>
    </wpt>
    <wpt lat="51.547490" lon="-0.191200">
        <name>West Hampstead</name>
        <desc></desc>
    </wpt>
    <wpt lat="51.505090" lon="-0.217720">
        <name>Shepherd's Bush</name>
        <desc></desc>
    </wpt>
    <wpt lat="51.613600" lon="-0.274760">
        <name>Edgware</name>
        <desc></desc>
    </wpt>
    <wpt lat="51.595760" lon="0.090890">
        <name>Fairlop Underground Station</name>
        <desc></desc>
    </wpt>
    <wpt lat="51.630220" lon="-0.179140">
        <name>Totteridge &amp; Whetstone</name>
        <desc></desc>
    </wpt>
    <wpt lat="51.523260" lon="-0.075060">
        <name>Shoreditch High Street</name>
        <desc></desc>
    </wpt>
    <wpt lat="51.527760" lon="0.004680">
        <name>West Ham</name>
        <desc></desc>
    </wpt>
    <wpt lat="51.490070" lon="0.069610">
        <name>Woolwich Arsenal (DLR)</name>
        <desc></desc>
    </wpt>
    <wpt lat="51.512290" lon="-0.188280">
        <name>Bayswater</name>
        <desc></desc>
    </wpt>
    <wpt lat="51.488060" lon="-0.010490">
        <name>Island Gardens</name>
        <desc></desc>
    </wpt>
    <wpt lat="51.504230" lon="-0.085150">
        <name>London Bridge</name>
        <desc></desc>
    </wpt>
    <wpt lat="51.590400" lon="-0.102800">
        <name>Turnpike Lane</name>
        <desc></desc>
    </wpt>
    <wpt lat="51.602750" lon="-0.264130">
        <name>Burnt Oak Station</name>
        <desc></desc>
    </wpt>
    <wpt lat="51.562050" lon="-0.441970">
        <name>Ickenham</name>
        <desc></desc>
    </wpt>
    <wpt lat="51.464610" lon="-0.037320">
        <name>Brockley</name>
        <desc></desc>
    </wpt>
    <wpt lat="51.506620" lon="-0.142720">
        <name>Green Park</name>
        <desc></desc>
    </wpt>
    <wpt lat="51.412650" lon="-0.065470">
        <name>Anerley</name>
        <desc></desc>
    </wpt>
    <wpt lat="51.514220" lon="-0.075680">
        <name>Aldgate</name>
        <desc></desc>
    </wpt>
    <wpt lat="51.541830" lon="-0.139070">
        <name>Camden Road</name>
        <desc></desc>
    </wpt>
    <wpt lat="51.513850" lon="-0.103570">
        <name>City Thameslink</name>
        <desc></desc>
    </wpt>
    <wpt lat="51.522630" lon="-0.163120">
        <name>Marylebone</name>
        <desc></desc>
    </wpt>
    <wpt lat="51.505840" lon="-0.378560">
        <name>Southall</name>
        <desc>Southall</desc>
    </wpt>
    <wpt lat="51.515160" lon="-0.140980">
        <name>Oxford Circus</name>
        <desc></desc>
    </wpt>
    <wpt lat="51.516270" lon="-0.130840">
        <name>Tottenham Court Road</name>
        <desc></desc>
    </wpt>
    <wpt lat="51.556750" lon="-0.005210">
        <name>Leyton</name>
        <desc></desc>
    </wpt>
    <wpt lat="51.548680" lon="-0.092110">
        <name>Canonbury</name>
        <desc></desc>
    </wpt>
    <wpt lat="51.546100" lon="-0.104210">
        <name>Highbury &amp; Islington</name>
        <desc></desc>
    </wpt>
    <wpt lat="51.507220" lon="-0.122320">
        <name>Embankment</name>
        <desc></desc>
    </wpt>
    <wpt lat="51.547130" lon="-0.056790">
        <name>Hackney Central</name>
        <desc></desc>
    </wpt>
    <wpt lat="51.537750" lon="-0.191330">
        <name>Kilburn High Road</name>
        <desc></desc>
    </wpt>
    <wpt lat="51.495300" lon="-0.255010">
        <name>Turnham Green</name>
        <desc></desc>
    </wpt>
    <wpt lat="51.534320" lon="-0.138830">
        <name>Mornington Crescent</name>
        <desc></desc>
    </wpt>
    <wpt lat="51.511850" lon="-0.224510">
        <name>White City</name>
        <desc></desc>
    </wpt>
    <wpt lat="51.524590" lon="-0.138200">
        <name>Warren Street</name>
        <desc></desc>
    </wpt>
    <wpt lat="51.477950" lon="-0.015810">
        <name>Greenwich (DLR)</name>
        <desc></desc>
    </wpt>
    <wpt lat="51.478180" lon="-0.014600">
        <name>Greenwich National Rail</name>
        <desc></desc>
    </wpt>
    <wpt lat="51.568830" lon="0.008600">
        <name>Leytonstone Station</name>
        <desc></desc>
    </wpt>
    <wpt lat="51.583010" lon="-0.073940">
        <name>Railway station</name>
        <desc></desc>
    </wpt>
    <wpt lat="51.522980" lon="-0.124290">
        <name>Russell Square</name>
        <desc></desc>
    </wpt>
    <wpt lat="51.502680" lon="-0.279960">
        <name>Acton Town</name>
        <desc></desc>
    </wpt>
    <wpt lat="51.356700" lon="-0.307970">
        <name>Chessington South</name>
        <desc></desc>
    </wpt>
    <wpt lat="51.519080" lon="-0.188090">
        <name>Royal Oak</name>
        <desc></desc>
    </wpt>
    <wpt lat="51.417550" lon="-0.060850">
        <name>Penge West</name>
        <desc></desc>
    </wpt>
    <wpt lat="51.533790" lon="-0.013600">
        <name>Pudding Mill Lane</name>
        <desc></desc>
    </wpt>
    <wpt lat="51.440330" lon="0.147890">
        <name>Bexley</name>
        <desc></desc>
    </wpt>
    <wpt lat="51.481620" lon="0.175370">
        <name>Erith</name>
        <desc></desc>
    </wpt>
    <wpt lat="51.396860" lon="-0.446700">
        <name>Shepperton Station</name>
        <desc></desc>
    </wpt>
    <wpt lat="51.551980" lon="-0.239050">
        <name>Dollis Hill</name>
        <desc></desc>
    </wpt>
    <wpt lat="51.465820" lon="0.008920">
        <name>Blackheath</name>
        <desc></desc>
    </wpt>
    <wpt lat="51.558400" lon="0.234990">
        <name>Upminster Bridge</name>
        <desc></desc>
    </wpt>
    <wpt lat="51.349840" lon="-0.481250">
        <name>Byfleet and New Haw</name>
        <desc></desc>
    </wpt>
    <wpt lat="51.349580" lon="-0.481110">
        <name>Byfleet and New Haw</name>
        <desc></desc>
    </wpt>
    <wpt lat="51.504170" lon="-0.108550">
        <name>Waterloo East</name>
        <desc></desc>
    </wpt>
    <wpt lat="51.552530" lon="-0.105490">
        <name>Drayton Park</name>
        <desc></desc>
    </wpt>
    <wpt lat="51.532000" lon="-0.123580">
        <name>King's Cross</name>
        <desc></desc>
    </wpt>
    <wpt lat="51.376330" lon="0.010550">
        <name>Hayes</name>
        <desc></desc>
    </wpt>
    <wpt lat="51.447900" lon="-0.410350">
        <name>Feltham</name>
        <desc></desc>
    </wpt>
    <wpt lat="51.329290" lon="-0.213080">
        <name>Banstead</name>
        <desc></desc>
    </wpt>
    <wpt lat="51.315800" lon="-0.137960">
        <name>Coulsdon South</name>
        <desc></desc>
    </wpt>
    <wpt lat="51.546960" lon="-0.204700">
        <name>Kilburn</name>
        <desc></desc>
    </wpt>
    <wpt lat="51.627860" lon="-0.385520">
        <name>Carpenders Park</name>
        <desc></desc>
    </wpt>
    <wpt lat="51.609380" lon="-0.368730">
        <name>Hatch End</name>
        <desc></desc>
    </wpt>
    <wpt lat="51.602500" lon="-0.357020">
        <name>Headstone Lane</name>
        <desc></desc>
    </wpt>
    <wpt lat="51.510120" lon="-0.472400">
        <name>West Drayton</name>
        <desc></desc>
    </wpt>
    <wpt lat="51.497890" lon="-0.210350">
        <name>Kensington Olympia</name>
        <desc></desc>
    </wpt>
    <wpt lat="51.458930" lon="-0.210930">
        <name>East Putney</name>
        <desc></desc>
    </wpt>
    <wpt lat="51.540660" lon="-0.299600">
        <name>Alperton</name>
        <desc></desc>
    </wpt>
    <wpt lat="51.553770" lon="-0.449920">
        <name>Hillingdon</name>
        <desc></desc>
    </wpt>
    <wpt lat="51.494520" lon="-0.267860">
        <name>Chiswick Park</name>
        <desc></desc>
    </wpt>
    <wpt lat="51.577260" lon="-0.097840">
        <name>Harringay Green Lanes</name>
        <desc></desc>
    </wpt>
    <wpt lat="51.612670" lon="-0.049050">
        <name>Angel Road</name>
        <desc></desc>
    </wpt>
    <wpt lat="51.546730" lon="-0.146700">
        <name>Kentish Town West</name>
        <desc></desc>
    </wpt>
    <wpt lat="51.614890" lon="-0.067100">
        <name>Silver Street</name>
        <desc></desc>
    </wpt>
    <wpt lat="51.523540" lon="-0.259820">
        <name>North Acton</name>
        <desc></desc>
    </wpt>
    <wpt lat="51.445240" lon="-0.206550">
        <name>Southfields</name>
        <desc></desc>
    </wpt>
    <wpt lat="51.543430" lon="-0.115250">
        <name>Caledonian Road &amp; Barnsbury</name>
        <desc></desc>
    </wpt>
    <wpt lat="51.513580" lon="-0.217650">
        <name>Latimer Road</name>
        <desc></desc>
    </wpt>
    <wpt lat="51.572110" lon="-0.295300">
        <name>Preston Road</name>
        <desc></desc>
    </wpt>
    <wpt lat="51.571440" lon="-0.421390">
        <name>Ruislip</name>
        <desc></desc>
    </wpt>
    <wpt lat="51.573210" lon="-0.412590">
        <name>Ruislip Manor</name>
        <desc></desc>
    </wpt>
    <wpt lat="51.578490" lon="-0.317870">
        <name>Northwick Park</name>
        <desc></desc>
    </wpt>
    <wpt lat="51.492110" lon="0.152440">
        <name>Belvedere</name>
        <desc></desc>
    </wpt>
    <wpt lat="51.536310" lon="-0.257690">
        <name>Harlesden</name>
        <desc></desc>
    </wpt>
    <wpt lat="51.569430" lon="-0.007050">
        <name>Leyton Midland Road</name>
        <desc></desc>
    </wpt>
    <wpt lat="51.519530" lon="-0.059870">
        <name>Whitechapel</name>
        <desc></desc>
    </wpt>
    <wpt lat="51.439310" lon="-0.053280">
        <name>Forest Hill</name>
        <desc></desc>
    </wpt>
    <wpt lat="51.494940" lon="-0.245690">
        <name>Stamford Brook</name>
        <desc></desc>
    </wpt>
    <wpt lat="51.348290" lon="-0.093650">
        <name>Sanderstead</name>
        <desc></desc>
    </wpt>
    <wpt lat="51.477080" lon="-0.147410">
        <name>Battersea Park</name>
        <desc></desc>
    </wpt>
    <wpt lat="51.549650" lon="0.197890">
        <name>Elm Park</name>
        <desc></desc>
    </wpt>
    <wpt lat="51.540300" lon="0.126640">
        <name>Becontree</name>
        <desc></desc>
    </wpt>
    <wpt lat="51.517040" lon="-0.177480">
        <name>London Paddington</name>
        <desc></desc>
    </wpt>
    <wpt lat="51.436460" lon="-0.468080">
        <name>Ashford</name>
        <desc></desc>
    </wpt>
    <wpt lat="51.548240" lon="-0.368720">
        <name>Northolt</name>
        <desc></desc>
    </wpt>
    <wpt lat="51.481060" lon="0.236800">
        <name>Purfleet</name>
        <desc></desc>
    </wpt>
    <wpt lat="51.525820" lon="-0.135200">
        <name>Euston Square</name>
        <desc></desc>
    </wpt>
    <wpt lat="51.514990" lon="-0.301130">
        <name>Ealing Broadway</name>
        <desc></desc>
    </wpt>
    <wpt lat="51.548130" lon="-0.192190">
        <name>West Hampstead Thameslink</name>
        <desc></desc>
    </wpt>
    <wpt lat="51.502930" lon="-0.419600">
        <name>Hayes And Harlington</name>
        <desc></desc>
    </wpt>
    <wpt lat="51.503070" lon="-0.420610">
        <name>Hayes &amp; Harlington Station</name>
        <desc></desc>
    </wpt>
    <wpt lat="51.539280" lon="0.052230">
        <name>East Ham</name>
        <desc></desc>
    </wpt>
    <wpt lat="51.607620" lon="-0.294650">
        <name>Canons Park</name>
        <desc></desc>
    </wpt>
    <wpt lat="51.549170" lon="-0.221190">
        <name>Willesden Green</name>
        <desc></desc>
    </wpt>
    <wpt lat="51.336300" lon="-0.362510">
        <name>Oxshott</name>
        <desc></desc>
    </wpt>
    <wpt lat="51.381240" lon="-0.245190">
        <name>Worcester Park</name>
        <desc></desc>
    </wpt>
</gpx>
